place,lat,long,value
(CÁRCEL) PENAL GUAYARAMERIN,-10.81292,-65.35279,47.62
(CÁRCEL) PENAL RIBERALTA,-10.99669,-66.0738,40
15 DE AGOSTO,-16.046625,-61.220209,92.82
16 DE FEBRERO,-17.74796,-63.098754,33.87
16 DE JULIO,-17.755441,-63.111464,35.48
19 DE OCTUBRE,-10.52243,-66.15702,50.7
26 DE MARZO,-17.58807,-63.13284,53.28
ANGELINA RIVERA,-17.85304,-63.17871,40.57
AULAS U.A.G.R.M.,-20.03783,-63.52124,42.53
CAMBAO,-17.87344,-63.23442,50
CAMPUS UNIVERSITARIO,-17.77396,-63.1925,16.48
CARCEL DE MUJERES,-14.84692,-64.90281,45.71
CARCEL MOCOBI,-14.77958,-64.90376,51.56
CARCEL PUBLICA (VILLA BUSCH),-11.08489,-68.78143,51.2
CARCEL PUBLICA DE MONTERO,-17.311191,-63.208493,31.82
CENTRO EDUCATIVO SIMON BOLIVAR,-10.83101,-65.36375,36.59
CENTRO INTEGRADO SAN FRANCISCO DE ASIS,-14.82278,-64.88588,27.27
COL  PLACIDO MOLILNA,-17.79406,-63.19062,37
COL.  ANITA SUAREZ DE LEYGUE,-17.825613,-63.240619,43.5
COL.  ELFI RIVERA DE BARBERY,-17.73966,-63.15907,37.21
COL.  PEDRO AÑEZ,-17.76698,-63.11894,35.34
COL. 12 DE DICIEMBRE,-17.820995,-63.130682,38.9
COL. 18 DE MARZO,-17.78999,-63.12068,33.04
COL. 24 DE SEPTIEMBRE,-17.764197,-63.154186,13.16
COL. 27 DE MAYO,-17.80221,-63.1305,44.64
COL. 30 DE MARZO,-17.80647,-63.14708,21.52
COL. 6 DE JUNIO,-11.00458,-66.077,24.44
COL. 6 DE JUNIO,-10.82762,-65.34737,32.22
COL. 7 DE SEPTIEMBRE,-17.729651,-63.170938,18.19
COL. ALAN FARAH,-17.79962,-63.0952,32.22
COL. ALFA Y OMEGA,-17.80245,-63.18944,25.53
COL. ALTO DE LA ALIANZA,-10.82369,-65.36181,36.61
COL. AMERICAN SCHOOL COOP.,-17.808713,-63.199976,8.28
COL. ANGEL LIMPIAS,-17.344556,-63.234855,56.87
COL. ANGELA PINCKERT,-17.80643,-63.12423,45
COL. ANGLO AMERICANO,-17.75651,-63.17102,8.09
COL. ARNULFO MARTINEZ,-14.86135,-66.74274,40.27
COL. ARTURO MEDEIROS,-17.723379,-63.190904,34.23
COL. ARZ. DANIEL RIVERO,-17.78975,-63.18145,20.59
COL. BAILON MERCADO ORTIZ,-17.75771,-63.16036,18.05
COL. BASILIO DE CUELLAR,-17.784300000000002,-63.1786,6.96
COL. BATALLON TREN,-17.79344,-63.12371,28.52
COL. BERTHA CUELLAR,-17.78985,-63.13752,30.45
COL. BOSTON COLLEGE,-17.77369,-63.17429,10.04
COL. BRITANICO,-17.7643,-63.17352,6.59
COL. BUENAS NUEVAS,-17.8226,-63.13937,37.87
COL. CAÑADA EL CARMEN,-17.814579,-63.153518,17.63
COL. CAÑADA PAILITAS,-17.81992,-63.14665,27.41
COL. CARMEN ORTIZ DE PEREDO,-17.75337,-63.1739,6.71
COL. CASTILLA LA MANCHA,-17.85068,-63.06415,43.94
COL. CENTRAL OBRERA DEPARTAMENTAL,-17.808349,-63.103957,42.47
COL. CENTRO EDUCATIVO CARITAS,-17.83982,-63.185588,20.76
COL. CENTRO INTERNO BOL. ALEMAN,-17.82509,-63.11688,52.14
COL. CIUDAD NIÑO JESUS,-17.82738,-63.18233,32.57
COL. CLUB DE LEONES #6,-17.7943,-63.18416,27.65
COL. COMPLEJO EDUCATIVO JAPON,-17.80635,-63.18984,36.96
COL. COVIPAL,-17.83965,-63.23657,61.6
COL. CUPESI TERRADO,-17.81237,-63.09699,54.7
COL. DANIEL RIVERO,-17.341276,-63.244606,60.52
COL. DIOS ES AMOR,-17.78535,-63.16571,13.35
COL. EDUARDO ABAROA,-17.323161,-63.239015,35.88
COL. EDUCATIVO COTOCA,-17.74604,-63.11758,41.2
COL. EDUCATIVO SAN ISIDRO,-17.80816,-63.13194,38.98
COL. EL BUEN SAMARITANO,-17.81198,-63.08056,49.39
COL. EL CARMEN 16 DE JULIO,-17.80798,-63.19295,21.66
COL. EL PAJONAL,-17.81264,-63.16722,15.07
COL. ESC. 29 DE DICIEMBRE,-17.809711,-63.211565,39.86
COL. ESC. CORONEL IGNACIO WARNES,-17.78679,-63.1825,17.08
COL. ESC. HILANDERIA,-17.80578,-63.21956,29.08
COL. ESC. HOLANDA,-17.88406,-63.19473,56.7
COL. ESC. HONORATO MEJIA,-17.861447,-63.213668,44.14
COL. ESC. LA BASE,-17.830009,-63.213665,35.45
COL. ESC. MAGISTERIO SUR,-17.86983,-63.18134,47.07
COL. ESC. MANUEL IGNACIO SALVATIERRA,-17.783337,-63.178445,13.09
COL. ESC. MARIA ALICIA PAZ B.,-17.85304,-63.19432,34.61
"COL. ESC. MAX FERNANDEZ ROJAS ""B""",-17.87381,-63.16543,53.42
COL. ESC. NAUN FERNANDEZ,-17.832721,-63.174044,33.43
COL. ESC. UNZAGA DE LA VEGA,-17.82803,-63.22689,40.47
COL. ESC.JUANA AZURDUY DE PADILLA,-17.84618,-63.10905,49.15
COL. ESC.PEREGRINA DAVALOS,-17.87231,-63.16763,53.78
COL. ESCUELA 2 DE AGOSTO,-17.75298,-63.15519,17.18
COL. ESCUELA AMBROCIO VILLARROEL,-17.790131,-63.226198,45.01
COL. ESCUELA JORGE URENDA TRIGO,-17.81518,-63.23063,26.3
COL. ESCUELA MAGISTERIO,-17.76229,-63.15523,15.22
COL. ESCUELA SARA PORRAS DE PINTO,-17.79663,-63.22218,26.18
COL. EVANGELICO NACIONAL,-10.81791,-65.35439,35.72
COL. FAUSTO MEDRANO,-17.78748,-63.12659,38.07
COL. FE Y ALEGRIA,-17.79493,-63.13117,32.82
COL. FE Y ALEGRIA,-17.343152,-63.228573,16.02
COL. FE Y ALEGRIA - ANICETO ARZE,-17.7986,-63.15612,17.82
COL. FE Y ALEGRIA LA MERCED,-17.78853,-63.19189,21.33
COL. FE Y ALEGRIA NUEVA AMERICA,-17.82978,-63.13412,46.16
COL. FELIX BASCOPE,-17.79648,-63.14538,20.83
COL. FELIX BASCOPE SANANDITA,-17.783358,-63.151288,16.27
COL. FRANZ TAMAYO,-17.341226,-63.232619,51.46
COL. GABRIEL RENE MORENO,-17.78357,-63.18595,14.35
COL. GILBERTO MENACHO,-17.79899,-63.12507,36.43
COL. GUALBERTO VILLARROEL,-17.77363,-63.16062,15.18
COL. GUAPILO JUNIN,-17.79171,-63.10236,29.92
COL. GUILLERMO KRUEGLER,-17.34654,-63.262484,23.67
COL. HENRRY PRINCE,-17.811941,-63.207249,23.56
COL. HERMANOS CAVANIS,-17.81549,-63.22014,23.12
COL. HERNANDO SILES,-17.861553,-63.175753,48.46
COL. HEROES DEL CHACO,-17.801187,-63.144536,27.19
COL. HISPANO AMERICANO,-17.79934,-63.13283,36.15
COL. HNAS. ARREDONDO(COL.JESUS PEREDO),-17.78474,-63.20106,25.51
COL. HUGO ARTEAGA,-20.03587,-63.51498,35.41
COL. HUMBERTO EGUEZ,-17.79594,-63.11185,38.29
COL. INSTITUTO AMERICANO JUAN WESLEY,-17.78164,-63.16511,13.24
COL. INTERNACIONAL (BETHESDA),-17.829402,-63.220349,33.26
COL. JHON KENNEDY,-17.78818,-63.19871,24.06
COL. JOAQUIN HURTADO CHAVEZ,-14.81511,-64.90425,34.39
COL. JOSE BARRERA,-15.89749,-63.188981,36.11
COL. JOSE CRONEMBOL,-17.35259,-63.25688,23.58
COL. JOSE MALKY JESUS MARIA,-17.808084,-63.181435,21.51
COL. JOSEFINA GOYTIA,-17.79632,-63.17068,11.07
COL. JUAN LA BORDE MOREL,-17.72277,-63.16035,20.65
COL. JUAN PABLO II,-17.80667,-63.169512,9.61
COL. JUAN ZABALA,-17.313657,-63.27181,35.34
COL. JULIO A. GUTIERREZ,-17.79789,-63.18236,18.47
COL. LA MADRE,-17.781252,-63.209141,31.86
COL. LA SALLE,-14.82676,-64.89569,26.1
COL. LAS AMERICAS II,-17.86217,-63.19033,41.36
COL. LUIS BARRANCO ALVAREZ,-17.84258,-63.12068,52.77
COL. LUIS ESPINAL CAMPOS,-17.86751,-63.16032,51.36
COL. LUZ DEL ORIENTE,-17.79396,-63.13755,30.37
COL. LUZ Y SABER II,-17.73533,-63.14804,23.41
COL. M. NELLY VDA. DE BERTERO,-17.81427,-63.11536,48.22
COL. MADRE CLARA RICCI (JESUS ROMAN VACA,-17.79584,-63.14016,30.47
COL. MAGDALENA POSTEL,-17.82687,-63.17854,21.7
COL. MARCELIANO MONTERO,-17.347172,-63.253634,21.06
COL. MARCOS CHAVEZ,-17.35353,-63.24632,34.51
COL. MARIA TERESA PULIDO,-17.8336,-63.1305,45.47
COL. MARISCAL SUCRE,-17.77866,-63.15338,13.51
COL. MATEO KULJIS SECUNDARIO,-17.837704,-63.225394,41.66
COL. MIRETTE SCIARONI,-17.76269,-63.18918,13.05
COL. MODULO FLAMINGO,-17.822854,-63.213693,20.81
COL. MONSEÑOR LUIS RODRIGUEZ P.,-17.81594,-63.19559,37.01
COL. NACIONAL 9 DE OCTUBRE,-17.844283,-63.156736,30.58
COL. NACIONAL CUATRO CAÑANDAS,-17.27547,-62.55971,71.01
COL. NACIONAL FLORIDA,-17.790386,-63.180267,9.87
COL. NACIONAL GUABIRA,-17.307656,-63.266133,38.86
COL. NACIONAL REYES,-14.29558,-67.33482,42.97
COL. NACIONAL SALESIANO,-17.78925,-63.16814,18.1
COL. NIMIA CENTELLA,-17.78436,-63.11775,37.23
COL. NORMANDIA JOSEFINA BALSAMO,-17.84974,-63.06764,52.47
COL. NUCLEO ESCOLAR RAMAFA,-17.80372,-63.1834,12.75
COL. NUEVA AMERICA,-17.76582,-63.15847,18.78
COL. NUEVA ESPERANZA,-17.74375,-63.14962,20.02
COL. OBISPO SANTISTEBAN,-17.342875,-63.253931,25.15
COL. OBISPO SANTISTEVAN,-17.78578,-63.1792,8.42
COL. OSCAR ARNULFO,-17.82932,-63.23433,38.52
COL. OVIDIO SANTISTEVAN,-17.74906,-63.19029,20.94
COL. PABLO SEXTO,-17.764242,-63.16352,19.95
COL. PAMPA DE LA CRUZ,-17.79276,-63.12878,27.21
COL. PAMPA DE LA ISLA,-17.77277,-63.12679,31.39
COL. PART. ALFRED B. NOBEL,-17.85304,-63.19432,24.82
COL. PEDRO GUTIERREZ,-17.7553,-63.16812,8.78
COL. PEDRO KRAMER,-10.99869,-66.06915,25.8
COL. PRIMAVERA,-17.81673,-63.1032,52.57
COL. PRINCIPE DE PAZ,-17.22497,-63.21263,37.58
COL. RAFAEL BUSTILLOS,-17.81418,-63.12329,47.72
COL. RAFAEL TERRAZAS,-17.3407,-63.25919,17.26
COL. RAMON DARIO GUTIERREZ,-17.80529,-63.164,12.45
COL. RENE MORENO,-17.33856,-63.25811,16.14
COL. RODOLFO JOEM,-17.82204,-63.16545,38.98
COL. SAGRADO CORAZON,-17.81605,-63.17153,26.62
COL. SAN CARLOS,-17.79229,-63.15134,17.25
COL. SAN FRANCISCO DE SALES DON BOSCO,-17.761086,-63.092299,22.69
COL. SAN FRANCISCO SUR,-17.85275,-63.16087,55.9
COL. SAN JOSE OBRERO,-17.345985,-63.240223,60.45
COL. SAN JOSE OBRERO,-10.99754,-66.06607,27.79
COL. SAN MARTIN DE PORRES,-17.77761,-63.2021,32.12
COL. SAN MARTIN NORTE,-17.7284,-63.14275,28.94
COL. SAN PABLO,-17.836934,-63.189671,16.41
COL. SAN SILVESTRE,-17.81204,-63.11408,50.09
COL. SAN VICENTE (EX UAB),-14.8346,-64.91093,31.86
COL. SANTA RAFAELA,-17.81471,-63.14124,29.74
COL. SECCIONAL MONSEÑOR SANTIESTEVAN,-17.779588,-63.181172,19.37
COL. SEFERINO NAMUCARA DON BOSCO,-17.775253,-63.177168,6.01
COL. SIMON BOLIVAR,-17.348138,-63.258013,23.56
COL. SOCIEDAD DE INGENIEROS,-17.79882,-63.19918,17.54
COL. SOR MARIA CRISTINA PEREZ,-17.78059,-63.14532,15.56
COL. TRISTAN ROCA,-17.78412,-63.16394,19.15
COL. U.E. ELVIRA FRIAS,-17.330133,-63.250157,66.12
COL. U.E. LA RESURECCION -ESC.CONVIF,-17.7436,-63.17194,7.34
COL. U.E. MONTECRISTO,-17.34976,-63.268056,52.39
COL. UNIDAD EDUCATIVA LA COLINA,-17.81892,-63.203112,30.1
COL. UNIDAD EDUCATIVA LA ESPERANZA,-17.352619,-63.239728,43.94
COL. UNIDAD EDUCATIVA VILLA VIRGINIA,-17.338106,-63.237336,69.84
COL. UV. LA MADRE,-17.78952,-63.21101,22.34
COL. VICTOR PAZ ESTENSORO,-17.817085,-63.186614,33.42
COL. VICTOR SALVATIERRA,-17.341555,-63.253661,22.38
COL. VILLA ALEGRE,-17.87461,-63.17024,66.6
COL. VILLA BOLIVIA,-17.746412,-63.189187,22.23
COL. VILLA FATIMA,-17.81076,-63.20216,28.93
COL. VILLA ROSARIO,-17.79646,-63.2086,45.37
COL. VIRGEN DE COTOCA,-17.744453,-63.1789,17.79
COL.ADVENTISTA SANTA CRUZ,-17.73494,-63.16123,18.08
COL.ANDRES ALBERDI SALEGUI,-13.7505,-65.4307,32.37
COL.ANTONIO VICENTE SEOANE,-17.80136,-63.19352,18.35
COL.CARCEL PUBLICA,-17.874405,-63.178911,48.84
COL.CARDENAL CUSHING JESUS MARIA,-17.79161,-63.18533,16.57
COL.CENTRO APRONDY,-17.77472,-63.15873,13.48
COL.CLUB DE LEONES,-17.7902,-63.17753,24.59
COL.CLUB DE LEONES #10,-17.7902,-63.17753,12.59
COL.CNEL.CARMELO CUELLAR J.,-13.23383,-63.79037,49.54
COL.DOMINGO LEIGUE (BOLIVIANO CANADIENSE,-17.77073,-63.16274,14.04
COL.ESC.  AMSTERDAN,-17.85901,-63.14972,59.54
COL.ESC. GRAL. ISMAEL MONTES GAMBOA,-17.744658,-63.109784,45.44
COL.ESC. INOCENCIO ROMAN,-17.85023,-63.06305,60.58
COL.ESC. ROCA CORONADO,-17.83748,-63.15992,49.98
COL.ESC. TIERRAS NUEVAS EL CARMEN,-17.845092,-63.21467,50.66
COL.ESC. VIRGEN DE URKUPINA,-17.748806,-63.102413,60.57
COL.ESCUELA BOLIVIA HOLANDA,-17.86903,-63.14489,63.8
COL.ESCUELA DELCY MARTINEZ SALINAS,-17.84095,-63.15478,45.57
COL.ESCUELA EL FUERTE,-17.84582,-63.14807,50.74
COL.ESCUELA NUEVA ESPERANZA,-17.832749,-63.074306,58.39
COL.ESCUELA POLY VILLARROEL,-17.8723,-63.1315,28.89
COL.GASTON GUILLAUX,-17.778769,-63.170991,13.86
COL.INDUSTRIAL INGAVI,-15.14148,-67.03596,63.78
COL.INST. DOMINGO SAVIO,-17.75908,-63.17353,13.07
COL.KINDER FANNY ANTELO,-17.75532,-63.15987,21.95
COL.LA SANTA CRUZ,-17.76664,-63.17908,9.43
COL.LICEO MARIA VACADIEZ,-17.76587,-63.16927,9.92
COL.MANUEL ANTONIO OJOPI,-10.81322,-65.35567,32.93
COL.MODULO # 5 ELVA ANTELO JORDAN,-17.860051,-63.167451,49.28
COL.MONS.DANIEL RIVERO,-13.74378,-65.42525,38.02
COL.POLIFUNCIONAL CALAMA,-17.837183,-63.218863,48.81
COL.REPUBLICA DEL URUGUAY,-17.77493,-63.17242,13.72
COL.ROMULO HERRERA,-17.78023,-63.17609,26.51
COL.SAN FRANCISCO DE BORJA,-14.85829,-66.75023,31.67
COL.SOCRATES PARADA EGUEZ,NA,NA,58.96
COL.TECNOLOGICO SANTA CRUZ,-17.76927,-63.15675,13.1
COL.U.  E. EL DORADO NORTE,-17.73737,-63.09708,47.29
COL.U. E. CARLOS LA TORRE,-17.77396,-63.12363,23.51
COL.U. E. EL RETOÑO,-17.73956,-63.07298,39.09
COL.U. E. ESCUELA ÑUFLO DE CHAVEZ,-17.747153,-63.158578,11.43
COL.U.E. 26 DE SEPTIEMBRE,-17.72374,-63.10361,53.27
COL.U.E. ALFREDO BARBERY CHAVEZ,-17.753441,-63.117965,38.6
COL.U.E. NUEVO HORIZONTE,-17.73058,-63.10971,51.15
COL.U.E.23 DE DICIEMBRE(J.  CARLOS TRUJI,-17.76983,-63.11529,27.85
COL.UNIDAD EDUCATIVA ESPAÑA,-11.518724,-66.778062,36.98
COL.UNIDAD EDUCATIVA LORENZO CABALLERO,-17.77592,-63.11751,20.07
COL.UNIDAD EDUCATIVA SAN JORGE,-17.80008,-63.18774,66.02
COL.VENANCIO AQUINO VILLEGAS,-17.74152,-63.18151,11.63
COL.WENSESLAO MONTERO,-17.76315,-63.15583,14.03
COLEGIO  23 DE ABRIL,-17.748562,-63.14577,32.22
COLEGIO  6 DE JUNIO,-17.75763,-63.16083,16.94
COLEGIO ADELA ZAMUDIO,-17.8329,-63.17396,38.13
COLEGIO ANTONIO VACA DIEZ,-10.81294,-65.35497,33.53
COLEGIO BERTHA CUELLAR,-17.77751,-63.1344,22.29
COLEGIO CASTULO CHAVEZ,-17.77663,-63.18775,13.14
COLEGIO CUPESO DE LOS REYES,-17.82436,-63.10786,55.47
COLEGIO DOMINGO SAVIO - DON BOSCO,-17.835712,-63.199394,37.58
COLEGIO DON BOSCO,-17.79467,-63.17539,11.56
COLEGIO EDUARDO ABAROA,-11.00703,-66.06204,30.74
COLEGIO EL PROGRESO,-17.827127,-63.205757,48.34
COLEGIO ELVIRA PARADA,-17.75476,-63.12992,32.48
COLEGIO FUENTE DEL SABER,-17.872962,-63.161888,59.78
COLEGIO GUILLERMO SEARLE,-13.74432,-65.42456,37.62
COLEGIO IGNACIO WARNES,-17.86588,-63.15627,54.74
COLEGIO ISMAEL CARRASCO TELLERIA,-11.01021,-66.05402,41.42
COLEGIO JOSEFINA BALSAMO( LOS TUSEQUIS),-17.78086,-63.1523,22.38
COLEGIO JUSTO LEIGUE,-17.798734,-63.16701,12.64
COLEGIO LUZ Y VERDAD,-17.876004,-63.187236,53.17
COLEGIO MANUEL VICENTE BALLIVIAN,-10.81116,-65.35051,26.35
COLEGIO MARCELINO CHAMPAGNAT,-17.85419,-63.18896,23.05
COLEGIO MARISTA,-17.788978,-63.173047,8.86
COLEGIO MARTIN SAPP,-17.825119,-63.174668,33.98
COLEGIO NACIONAL SANTA ROSA,-14.07823,-66.78864,35.09
COLEGIO NAL. BENEMERITOS DE LA PATRIA,-17.75773,-62.99899,32.79
COLEGIO NESTOR SUAREZ,-17.81688,-63.17374,27.38
COLEGIO PLAN 4000,-17.884708,-63.175941,62.43
COLEGIO RAQUEL SOSSA,-17.770904,-63.197872,9.52
COLEGIO SAN FELIPE,-17.76667,-63.122998,43.22
COLEGIO SAN FRANCISCO,-11.00753,-66.07206,30.09
COLEGIO SAN FRANCISCO DE ASIS,-17.856931,-63.144289,47.99
COLEGIO SAN JORGE,-17.87261,-63.1956,50.42
COLEGIO SAN JUAN,-11.03188,-66.04671,45.67
COLEGIO SIMON BOLIVAR,-17.82358,-63.1228,53.88
COLEGIO TOKIO,-17.775086,-63.180055,34.75
COLEGIO VILLA GLADYS THEVENETH,-17.82021,-63.11954,56.09
COLEGIO WALTER ALPIRE DURAN,-11.01164,-66.05729,31.25
COMITE CIVICO TUMICHUCUA,-11.14738,-66.16624,34.98
DR.ELMER BOTSFORD,-10.8088,-65.35297,30.53
ESC  ALFREDO VASQUEZ,-17.07037,-63.484074,18.13
ESC LOS SAUCES I,-17.728327,-63.179549,27.58
ESC VILLA NORTE,-17.747036,-63.180383,17.67
"ESC, MARIA DE LOS ANGELES",-15.623256,-63.082425,56.2
"ESC, NUCLEO SAN LUIS",-18.1413,-63.48095,44.58
"ESC, REPUBLICA DEL BRASIL",-17.569681,-63.230297,27.69
ESC.  29 DE JUNIO,-18.05655,-63.42663,50.65
ESC.  ALFREDO VACA FLOR,-16.670979,-63.864672,86.61
ESC.  EL JAGUE,-18.02102,-64.32232,45.83
ESC.  MIXTO LOS ANDES,-16.885189,-63.832018,82.55
ESC.  UNID. EDU. FELIX PAZ VIEIRA,-17.293579,-63.043467,51.34
ESC. 1 DE SEPTIEMBRE,-17.09076,-63.08397,61.64
ESC. 10 DE NOVIEMBRE,-16.430695,-63.107362,70.66
ESC. 12 DE ABRIL,-18.45699,-63.21368,46.43
ESC. 12 DE JULIO,-20.04149,-63.53097,41.38
ESC. 16 DE MARZO,-20.04896,-63.52925,44.88
ESC. 17 DE FEBRERO,-15.249007,-63.864105,86.45
ESC. 24 DE SEPTIEMBRE,-20.04004,-63.5203,35.34
ESC. 25 DE MAYO,-18.136474,-62.049977,84.62
ESC. 25 DE MAYO (CHIQUITOS),-17.665,-62.72187,80.22
ESC. 26 DE AGOSTO,-17.460065,-62.621185,65.76
ESC. 26 DE OCT. FE Y ALEGRIA,-16.801311,-62.757887,91.24
ESC. 3 DE MAYO,-17.619489,-62.229437,54.16
ESC. 4 DE MARZO,-16.937875,-63.901851,88.85
ESC. 6 DE ABRIL,-15.6334,-63.567876,65.48
ESC. 9 DE ABRIL,-16.60111,-63.66607,68.25
ESC. ABEL ITURRALDE,-20.04487,-63.52305,35.7
ESC. ADHEMAR ORTIZ,-17.610627,-63.525299,61.61
ESC. ADRIAN JUSTINIANO ROCA,-17.59505,-63.01891,36.5
ESC. AGUAICES,-16.896858,-63.310846,65.76
ESC. ALBERTO RIBERA TAPIA,-18.15956,-63.50418,57.11
ESC. ALFREDO SMITH,-16.32987,-62.90907,39.61
ESC. ALTA GRACIA,-13.63675,-63.66943,37.25
ESC. ALTO SECO,-18.870714,-64.073897,43.66
ESC. ANANIAS MELENDRES,-17.97899,-64.03188,63.09
ESC. ANGEL MARIA LIMPIAS,-17.35743,-63.39923,24.5
ESC. ANGEL SAAVEDRA CHAVEZ,-18.194066,-63.968651,41.27
ESC. ANGELICA RIVERO,-18.990373,-57.793147,31.82
ESC. APONTE J. MANUEL O.H. DEL CHACO,-20.04499,-63.52154,35.75
ESC. APONTE TINEO(ESC.GREGORIO MORENO),-17.766085,-63.18357,10.35
ESC. ASCENCION CENTRAL,-15.897535,-63.189148,45.96
ESC. ASTILLERO,-18.40132,-64.3554,75.24
ESC. ASUNCION DEL QUIQUIBEY,-14.64125,-67.51161,47.83
ESC. BELISARIO SANTISTEBAN,-16.70072,-60.96719,55.73
ESC. BENJAMIN CATACORA,-16.319984,-59.449556,40.96
ESC. BUEN DESTINO,-11.76321,-66.76987,82.29
ESC. CACHUELA,-16.20543,-63.11323,82.26
ESC. CAIRO II,-14.20468,-63.52425,100
ESC. CAMPAMENTO,-15.178595,-61.017949,43.56
ESC. CAMPO ANA MARIA,-12.94433,-65.57471,73.91
ESC. CAÑADA DOS,-18.06299,-63.32237,85.83
ESC. CANANDOA,-16.522665,-63.712271,79.01
ESC. CANDELARIA (CHIQUITOS),-18.626116,-58.986879,53.57
ESC. CARLOS MAYSER,-16.37827,-60.96424,26.53
ESC. CASAMONTES,-18.704296,-64.029522,31.3
ESC. CENT. JULIO FLORES FRANCO,-16.44536,-62.01875,43.15
ESC. CENTRAL ANGEL FOIANINI,-17.8802,-63.2851,48.12
ESC. CENTRAL BAQUETY,-12.53514,-66.79783,91.49
ESC. CENTRAL BASILIO,-18.12562,-63.19316,59.78
ESC. CENTRAL BELLA VICTORIA,-18.234377,-63.945482,46.89
ESC. CENTRAL DE ITANAMBIKUA,-20.018151,-63.51152,75.4
ESC. CENTRAL EL PUQUIO,-16.732505,-61.911699,98.98
ESC. CENTRAL FRANZ TAMAYO,-16.998596,-62.845439,76.13
ESC. CENTRAL GUADALUPE,-18.55554,-64.08943,45.1
ESC. CENTRAL IPATIMIRI,-19.775085,-63.484202,65.06
ESC. CENTRAL IYOBI,-19.388571,-62.535016,56.24
ESC. CENTRAL MONTEVERDE,-17.92225,-63.501220000000004,84.03
ESC. CENTRAL RAFAEL PABON,-20.43133,-63.28176,52.45
ESC. CENTRAL SAN CARLOS,-17.40302,-63.72837,33.54
ESC. CENTRAL SAN PEDRO,-16.672412,-62.249595,32.86
ESC. CENTRAL SAN RAMON,-16.61663,-62.49786,42.53
ESC. CENTRAL URBANA,-20.010454,-63.536192,52.19
ESC. CESAR BANZER ALIAGA,-17.40066,-63.88105,63.72
ESC. CIUDAD SATELITE NORTE,-17.60657,-63.14571,55.25
ESC. CLARACUTA,-17.733489,-63.154764,19.86
ESC. COL  CIRO MEALLA,-16.907358,-62.61414,69.15
ESC. COL. CONSTANTINO CUELLAR,-17.506414,-63.164262,37.52
ESC. COLEGIO JULIA SAID,-17.512132,-63.164069,50.19
ESC. COLONIA 5 DE MARZO,-15.365206,-63.785943,58.33
ESC. COLONIA WARNES,-19.211878,-57.948444,77.36
ESC. CONSTANZA VARGAS,-11.73581,-66.73828,40.91
ESC. COOP EDUCACIONAL PUERTO SUAREZ,-18.966289,-57.801748,36.86
ESC. COOPERE BRECHA,-19.650771,-62.625886,73.68
ESC. CORRALON,-16.36582,-63.21976,85.32
ESC. COTOCA (CORDILLERA),-18.578866,-63.273667,18.75
ESC. CRISTIANA EVANGELICA,-20.04179,-63.52061,31.79
ESC. DANIEL ZAMBRANA,-18.82769,-58.62548,45.96
ESC. DE CHACOPATA,-18.357379,-64.228447,37.9
ESC. DON BOSCO,-18.33508,-59.75139,32.82
ESC. DON BOSCO,-16.38181,-60.9684,37.23
ESC. DON BOSCO FE Y ALEGRIA,-17.35061,-64.09068,77.79
ESC. EDEY CORBAN SEHALLER,-18.717645,-64.18601,53.71
ESC. EDUARDO ABAROA,-18.385553,-63.209715,49.01
ESC. EDUARDO ABAROA,-17.55737,-63.6379,69.64
ESC. EDUARDO AVAROA,-16.962872,-63.232138,66.95
ESC. EDUCACIONAL TAPERAS,-17.65825,-62.70883,38.05
ESC. EDUCATIVA MAKANATE,-15.485105,-62.29666,96.15
ESC. EL CARMEN DE GUACAYANE,-13.12766,-64.37999,100
ESC. EL CERRITO,-13.09042,-66.7103,33.75
ESC. EL COLORADO,-17.17983,-63.42475,56.52
ESC. EL COMBATE,-15.969751,-64.483235,70.59
ESC. EL DESENGAÑO,-14.27502,-65.44534,49.57
ESC. EL JIPA,-17.504279,-63.145855,53.97
ESC. EL PALLAR,-16.762518,-64.81531,69.52
ESC. EL PROGRESO,-16.91284,-62.62124,74.56
ESC. EL TINTO,-17.66647,-61.51249,42.57
ESC. EL TUNA,-16.62828,-59.6983,21.48
ESC. ELENA VACA ANTELO,-17.99134,-63.3835,49.8
ESC. ELIODORO PAZ,-18.96109,-57.79655,30.15
ESC. EMILIA CABALLERO,-17.96113,-64.63905,81.25
ESC. EMILIO FINOT,-19.42237,-63.530809,38.4
ESC. EMILIO SUNCER SALINAS,-17.601882,-61.988438,54.31
ESC. ENRIQUE QUINTELA,-20.011848,-63.184159,56.57
ESC. ESCUELA SAN MATEO,-17.75753,-64.66927,87.82
ESC. ESTACION CHARAGUA,-19.782664,-63.148697,49.87
ESC. ESTEBAN GEBARD,-15.903269,-63.186997,41.32
ESC. EVANGELICA RINCON DEL TIGRE,-18.210793,-58.168054,44.39
ESC. FE ALEGRIA,-17.65843,-62.72065,39.35
ESC. FE Y ALEGRIA,-17.981,-63.45194,67.61
ESC. FE Y ALEGRIA,-17.096387,-62.684614,48.25
ESC. FE Y ALEGRIA,-16.825412,-63.48004,53.2
ESC. FE Y ALEGRIA TITO BOLTAN,-16.84723,-63.428714,50.3
ESC. FISCAL DE NINOS SANTA FE,-17.39861,-63.82872,56.89
ESC. FISCAL POTRERO LARGO,-17.56155,-63.11728,55.31
ESC. FRAY SANTIAGO DE RIVERO,-17.85656,-63.30791,38.53
ESC. GABRIEL JOSE MORENO,-17.88486,-62.94179,24.44
ESC. GABRIEL RENE MORENO,-20.03892,-63.52212,39.77
ESC. GABRIEL RENE MORENO,-17.913511,-64.526665,60.56
ESC. GERMAN BUSCH,-17.84692,-60.74323,34.84
ESC. GERMAN BUSCH,-17.73681,-63.1716,17.39
ESC. GERMAN BUSCH,-17.404915,-63.885625,60.88
ESC. GERMAN BUSCH YACUSES,-18.97605,-58.23871,53.74
ESC. GISELA BRUN SCIARONI,-19.004686,-57.716504,33.77
ESC. GODOFREDO TRENKER,-16.78576,-60.67352,30.5
ESC. GRAL SAN MARTIN,-16.701741,-62.856907,80.97
ESC. GRAL. AGUSTIN SAAVEDRA,-18.1794,-63.87621,38.14
ESC. GREMIAL CORTEZ,-17.82349,-63.01388,54.78
ESC. GUADALUPE FE Y ALEGRIA,-16.13626,-62.02316,46.85
ESC. GUIDO OSWALDO SUANZO,-18.33875,-59.75161,30.81
ESC. HABRA DE CAPILLA,-17.87328,-64.73131,84.26
ESC. HOLANDA,-16.88703,-61.79376,100
ESC. HUMBERTO VILLARROEL,-18.09421,-64.58239,64.05
ESC. IBAMIRAPINTA,-19.804992,-63.482877,64.22
ESC. IGNACIO TERAN,-18.48932,-64.10592,35.13
ESC. INDIGENA ARENALES,-15.10867,-66.9127,97.01
ESC. JOSE CASTRILLO,-20.03724,-63.52077,47.32
ESC. JOSE J.DORADO,-16.69866,-60.96856,48.87
ESC. JOSE LUIS CASTRO,-17.34488,-62.55427,66.32
ESC. JOSE MARIANO SERRANO,-17.72271,-63.16407,12.74
ESC. JOSE MIGUEL DE VELASCO,-17.9662,-63.21535,36.76
ESC. JOSE PARADA LAGUINDEY,-17.72245,-63.38077,31.22
ESC. JOSE VICENTE SOLIZ Y RAMOS,-17.89064,-63.32945,42.71
ESC. JOSEFINA GOYTIA,-18.96123,-57.80096,27.38
ESC. JUAN PABLO SEGUNDO,-17.26752,-62.55701,61.94
ESC. JUANA AZURDUY DE PADILLA,-17.87674,-63.26641,41.27
ESC. JUANA AZURDUY DE PADILLA,-17.51302,-63.0628,61.35
ESC. JUANA AZURDUY DE PADILLA,-10.99538,-66.07388,20.85
ESC. JUANA CARMEN ROMAN,-18.4858,-64.10367,37.03
ESC. JULIO LANDIVAR,-17.35695,-63.39304,19.27
ESC. KURUGUAKUA,-19.388914,-63.395339,79.05
ESC. LA AGUADA,-18.336421,-64.142375,35.56
ESC. LA APLICACION,-17.354774,-63.394758,21
ESC. LA ASUNTA SAN BERNARDO,-16.76817,-62.57837,61.3
ESC. LA CONQUISTA,-16.733663,-63.95355,84.41
ESC. LA CRUZ,-14.97601,-66.73125,93.23
ESC. LA ELVIRA,-18.05682,-63.44523,40.91
ESC. LA HIGUERA,-18.794723,-64.201112,35.86
ESC. LA PATRIA,-17.124592,-63.339413,51.47
ESC. LA PEÑA,-17.96183,-62.96586,86.45
ESC. LA PEÑA- BRECHA-3,-17.98781,-63.05506,51.59
ESC. LAGUNILLAS,-19.65222,-63.67723,54.13
ESC. LAS PALMAS,-17.07745,-63.27835,62.9
ESC. LAS PETAS,-16.379134,-59.182016,33.76
ESC. LEONOR RIVERA,-17.838811,-60.743196,38.62
ESC. LIC. SENORITAS MONSENOR DANIEL RIVE,-16.381938,-60.95947,22.09
ESC. LOLA TERRAZAS DE GASSER,-17.571737,-63.241151,41.1
ESC. LOMA SUAREZ,-14.76063,-64.96272,56.46
ESC. LOS CHACOS,-15.93742,-63.534789,8
ESC. LOS SITANOS,-18.86124,-63.959121,19.44
ESC. LOS SOTOS,-18.24889,-59.8557,57.3
ESC. LOS TRONCOS,-17.06814,-62.63882,45.45
ESC. MANGALITO,-14.84847,-64.91572,44.28
ESC. MANZANAL,-17.84591,-64.77901,91.58
ESC. MARCELINO CHAIPANA,-18.10087,-64.43036,54.73
ESC. MARCELINO REVOLLO,-19.72541,-63.39302,56.87
ESC. MARIANO SAUCEDO SEVILLA,-17.45934,-63.66378,38.19
ESC. MARISCAL ANTONIO JOSE DE SUCRE,-17.74769,-63.05227,36.36
ESC. MARISCAL SUCRE,-19.35422,-63.50597,35.13
ESC. MARISCAL SUCRE,-17.38778,-63.96143,76.38
ESC. MARISCAL SUCRE,-16.37599,-60.97673,22.13
ESC. MARISTA,-18.34039,-59.75665,33.7
ESC. MARTINA DORADO,-17.35174,-63.39271,25.61
ESC. MAX FERNANDEZ ROJAS,-16.97607,-62.54577,77.7
ESC. MEJILLONES,-10.82544,-65.35355,32.24
ESC. MIGUEL LANDIVAR,-19.281863,-63.443192,65.2
ESC. MIGUEL SUAREZ ARANA,-18.96855,-57.79474,33.23
ESC. MIRAFLORES II,-17.12125,-60.58031,74.89
ESC. MISION FATIMA,-15.45636,-66.746,93.27
ESC. MIXTA LA FRONTERA,-19.02897,-57.70963,48.2
ESC. MONSEÑOR BONIFACIO,-17.07628,-61.49168,43.92
ESC. MONTE CRISTO,-15.611731,-64.374031,53.33
ESC. MONTE CRISTO DEL TIQUIN,-13.62647,-61.97526,81.74
ESC. MONTE RICO,-17.37492,-62.48614,88.18
ESC. MORE-MONTE AZUL,-12.09472,-64.91856,100
ESC. MOROMORO,-18.366637,-64.322595,35.04
ESC. MUNICIPAL ROSAL CENTRO,-17.934066,-62.680056,43.8
ESC. NACIONAL BOLIVIA,-17.40517,-63.88673,70.18
ESC. NACIONES UNIDAS,-17.9931,-63.38043,60.03
ESC. NAPOLEON GOMEZ,-18.17913,-63.87625,35
ESC. NAPOLEON MONTERO MONTERO,-18.33945,-59.59888,23.34
ESC. NATANIEL VERDUGEZ,-17.85087,-63.25018,47.11
ESC. NESTOR PAZ ZAMORA,-18.334068,-63.947953,40.54
ESC. NIÑO JESUS,-20.04194,-63.51853,28.49
ESC. NOEL KENP MERCADO,-17.08242,-64.29475,85.52
ESC. NORMAL ENRIQUET  FINOT,-17.76357,-63.19629,7.77
ESC. NUCLEO  MARISCAL SUCRE,-17.10982,-63.12855,64.89
ESC. NUCLEO 66 2 DE AGOSTO,-16.639802,-62.788389,68
ESC. NUCLEO ARIRUMA,-18.301195,-64.263305,55.48
ESC. NUCLEO CENTRAL,-18.52514,-64.29378,71.19
ESC. NUCLEO CENTRAL,-17.58445,-63.51644,30.76
ESC. NUCLEO CENTRAL,-17.163775,-63.761351,79.21
ESC. NUCLEO CENTRAL MINERO,-17.113123,-63.233989,42.38
ESC. NUCLEO CENTRAL MURILLO,-16.755574,-63.550268,63.53
ESC. NUCLEO CENTRAL NUEVA ESPERANZA,-17.16079,-63.21746,54.17
ESC. NUCLEO CENTRAL SANTA FE,-17.69273,-63.521552,80.19
ESC. NUCLEO EL BELLO,-18.4416,-64.1921,11.63
ESC. NUCLEO ESCOLAR LA BRECHA,-19.505582,-62.560903,64.46
ESC. NUCLEO ESCOLAR YAGUARU,-15.600331,-63.22532,34.23
ESC. NUCLEO MARISCAL SUCRE,-16.967262,-63.219397,66.72
ESC. NUCLEO POSTERVALLE,-18.492921,-63.836033,29.06
ESC. NUCLEO SAN JUAN,-18.337358,-64.203352,32.67
ESC. NUCLEO SAN JUAN DEL ROSARIO,-18.305141,-63.809243,41.62
ESC. NUCLEO SANTA ROSA,-17.86679,-64.245937,59.04
ESC. NUCLEO TUCUMANCILLO,-18.376884,-64.148977,30.19
ESC. NUESTRA SEÑORA DE FATIMA,-14.83099,-64.89811,31.16
ESC. NUEVA AURORA,-17.49827,-62.80148,18.75
ESC. NUEVA ESPERANZA,-18.443284,-62.816879,77.11
ESC. NUEVA ESPERANZA,-12.97329,-66.00737,47.06
ESC. NUEVO HORIZONTE,-17.43794,-60.73072,33.33
ESC. NUEVO SIMON BOLLIVAR,-17.4061,-63.88425,62.2
ESC. OBISPO MANUEL JOSE PEÑA,-18.488439,-64.107881,35.85
ESC. OBISPO SANTISTEBAN,-16.84942,-63.382851,71.12
ESC. OCONI,-17.982822,-64.683177,93.88
ESC. OKITA,-20.005202,-63.274383,85.71
ESC. OROMOMO,-16.043994,-66.187433,84.9
ESC. OVIDIO SUAREZ,-17.45913,-63.66139,45.55
ESC. PADRE MATIAS LENS,-16.76787,-61.81025,54.99
ESC. PADRE REMO PRANDINI VIOTTI,-16.67545,-63.6132,62.3
ESC. PAILITA,-15.529736,-60.976441,58.49
ESC. PALESTINA,-15.5535,-62.25437,95.08
ESC. PALMARITO,-19.490204,-63.460997,91.73
ESC. PALMASOLA (EL CARMEN),-17.891877,-64.208796,67.81
ESC. PALMERAS,-18.20027,-58.206206,49.38
ESC. PALOMETAS,-17.03255,-63.52637,44.58
ESC. PAMPA DEL COSCAL,-18.299728000000002,-63.423712,68.22
ESC. PASTO MERCADO QUIROGA,-17.12932,-63.43382,51.67
ESC. PATUJU,-16.9081,-62.61599,72.06
ESC. PEDRO ARISTIDES,-18.08937,-64.11092,34.28
ESC. PEDRO IGNACIO MUIBA,-14.84481,-64.91414,36.49
ESC. PEROTO,-17.476332,-63.418005,25.49
ESC. PIRAIMIRI,-18.637267,-63.966419,35.21
ESC. PLAYA ANCHA,-14.62954,-67.26197,92
ESC. POPULAR DON BOSCO,-17.292543,-63.851316,40.71
ESC. POZA VERDE,-17.71927,-62.70517,81.11
ESC. PROF. DELFIN ARTEAGA IPATI,-19.764914,-63.561366,49.68
ESC. PTO. CAMACHO,-18.90593,-63.39868,41.47
ESC. PUEBLO NUEVO PARAPETI,-20.026261,-63.15191,58.55
ESC. PUEBLOS UNIDOS,-16.07503,-64.081781,85.92
ESC. PUERTO SAN BORJA,-14.98267,-65.79875,85.19
ESC. PUERTO TERESA,-13.44813,-66.60133,25.76
ESC. PUERTO USTAREZ,-12.40728,-64.45786,66.67
ESC. PUERTO VARADOR,-14.87702,-64.99762,42.24
ESC. PUESTO PAZ,-17.48613,-62.44294,65.52
ESC. QUEBRADA LEON,-17.96212,-63.47776,70.68
ESC. RAUL MONJE ROCA,-14.83707,-64.8938,34.51
ESC. REAL AMERICA(ESC.F.FLORIDA),-17.728324,-63.162059,23.83
ESC. RECREO,-16.425825,-61.05543,64.15
ESC. RENE BARRIENTOS,-17.77159,-63.198154,22.7
ESC. RENE BARRIENTOS ORTUÑO,-18.11939,-63.95997,53.88
ESC. RENE BARRIENTOS ORTUÑO,-14.29512,-67.33835,42
ESC. RINCON DE PALOMETA,-17.013996,-63.552088,33.59
ESC. RIO SECO FLORIDA,-18.67221,-63.24144,45.81
ESC. RUBEN DARIO SOLIZ,-17.93966,-63.35154,50.54
ESC. RURAL JASIAQUIRI,-13.72094,-63.7384,53.02
ESC. SAGRADA FAMILIA,-18.33087,-59.75781,30.17
ESC. SAMUEL LOPEZ MENDOZA,-19.002369,-57.717404,40.9
ESC. SAN ANTONIO,-16.834164,-62.723049,80.49
ESC. SAN ANTONIO DEL POTRERO,-18.342,-59.74802,69.77
ESC. SAN BORJA RIO BLANCO,-12.62778,-64.10181,45.39
ESC. SAN FERNANDO,-17.259623,-58.637667,21.95
ESC. SAN FRANCISCO DEL YATA,-10.61194,-65.51111,35.56
ESC. SAN IGNACIO,-17.278801,-63.570693,36.26
ESC. SAN IGNACIO DE LOYOLA,-18.118194,-64.216267,31.15
ESC. SAN ISIDRO,-18.04461,-64.43211,49.88
ESC. SAN JOSE,-14.30772,-67.37435,50.6
ESC. SAN JOSE,-10.81522,-65.34554,33.92
ESC. SAN JOSE DE LA CAPILLA,-18.0994,-64.4388,52.1
ESC. SAN JOSE DE YOTAU,-16.174824,-63.021948,67.54
ESC. SAN JOSEMA,-16.263884,-61.037795,69.32
ESC. SAN JUAN,-17.77805,-59.93511,43.1
ESC. SAN JUAN DEL MACOÑO,-16.045921,-60.182398,30.19
ESC. SAN JUAN DEL POTRERO,-17.96157,-64.29284,46.41
ESC. SAN LUIS,-16.94883,-63.78288,86.07
ESC. SAN MARCOS,-13.81978,-67.50578,14.29
ESC. SAN MARTIN,-15.39137,-61.48943,85.35
ESC. SAN PABLO,-15.901607,-63.303127,60.9
ESC. SAN RAFAEL,-18.1077,-64.56412,73
ESC. SAN SALVADOR NUCLEO 38,-16.53014,-63.01813,88.89
ESC. SAN SILVESTRE,-16.87776,-63.336297,69.64
ESC. SANTA ANA,-18.70716,-58.78492,50.85
ESC. SANTA ELENA,-11.043493,-67.828016,45.45
ESC. SANTA ISABEL,-16.41756,-58.64299,74.74
ESC. SANTA MARIA,-15.728429,-63.45625,68.31
ESC. SANTA ROSA,-18.31618,-63.003792,47.52
ESC. SANTA ROSA,-17.11006,-63.59691,34.29
ESC. SANTA ROSA DE LA MINA,-16.54375,-62.46406,39.04
ESC. SANTA ROSITA,-18.52326,-64.08921,32.54
ESC. SANTA TERESITA,-17.94919,-60.49098,100
ESC. SANTA TERESITA (CURURU),-15.500628,-63.201285,18.18
ESC. SANTIAGO DEL VALLE,-18.221287,-63.916443,28.43
ESC. SANTO CORAZON,-17.97362,-58.80663,32.71
ESC. SEBASTIAN PAGADOR,-16.911285,-62.625744,94.23
ESC. SECC SAN FRANCISCO DE ASIS,-18.13124,-62.9499,65.11
ESC. SECC. CENTRAL MASAVI,-19.370372,-63.279874,74.15
ESC. SECC. CHOROQUETAL LA ELE,-20.443993,-62.831223,38.46
ESC. SECC. CURUNDAITY,-19.96275,-63.52541,84
ESC. SECC. DE KAIPEPE,-19.719167,-63.141683,71.43
ESC. SECC. EL ARENAL,-20.403469,-63.514217,87.5
ESC. SECC. EL CURICHI,-18.753135,-63.21993,31.31
ESC. SECC. EL ESPINO,-19.22458,-63.260082,85.71
ESC. SECC. GUASANTI,-19.78613,-63.42537,75.43
ESC. SECC. GUIRARAPO,-20.09914,-63.48684,63.72
ESC. SECC. HUARIRENDA NUEVA,-19.175786,-62.528062,64.98
ESC. SECC. IMBOCHI,-20.06726,-63.51324,64.71
ESC. SECC. ITAKUATIA,-20.114094,-63.663027,28.81
ESC. SECC. POZO DE MONTE,-20.287397,-63.262088,64.79
ESC. SECC. PUENTE VIEJO,-20.01106,-63.54469,71.35
ESC. SECC. RANCHO NUEVO,-19.440204,-62.567922,55.31
ESC. SECC. TACOBO,-18.989088,-63.328658,75
ESC. SECC. TAPUTA,-19.590196,-63.221047,94.35
ESC. SECC.MON.SALVATIERRA,-15.50296,-63.01738,58.44
ESC. SECCIONAL,-17.03029,-63.31478,89.47
ESC. SECCIONAL AGUADA GRANDE,-19.49386,-63.674118,57.54
ESC. SECCIONAL AGUAS CALIENTES,-18.45304,-59.50294,67.17
ESC. SECCIONAL ALTO PARAPETI,-19.947464,-63.640233,81.67
ESC. SECCIONAL CAIPIPENDI,-19.78204,-63.3559,77.55
ESC. SECCIONAL CALENDARIA,-16.2456,-62.12077,63.64
ESC. SECCIONAL CAÑADA LARGA,-17.641934,-62.491463,39.05
ESC. SECCIONAL CANDELARIA,-16.764517,-58.934118,47.83
ESC. SECCIONAL CAPIRENDA,-19.6701,-63.37655,78.57
ESC. SECCIONAL CORONACION,-16.50191,-62.63953,67.73
ESC. SECCIONAL EL CARMEN,-16.36871,-63.209898,60.74
ESC. SECCIONAL EL FILO,-18.416954,-63.595217,4.76
ESC. SECCIONAL EL RODEO,-19.963118,-63.412659,83.06
ESC. SECCIONAL FAJA BOLIVAR,-16.973433,-63.228981,100
ESC. SECCIONAL ISIPORENDA,-19.833383,-62.730233,74.55
ESC. SECCIONAL ITATIQUE,-20.261714,-63.150445,90.12
ESC. SECCIONAL ITEMBEGUAZU,-19.36706,-63.36713,52.94
ESC. SECCIONAL LIMONCITO,-15.917671,-63.383224,34.38
ESC. SECCIONAL LITORAL,-16.72976,-63.57311,71.91
ESC. SECCIONAL PALMARITO,-15.68015,-61.58675,24.76
ESC. SECCIONAL PIPI,-20.083076,-63.42315,84.62
ESC. SECCIONAL PUEBLO VIEJO,-18.56561,-63.379357,45.02
ESC. SECCIONAL S. MIGUEL POCITO,-19.68275,-63.45378,33.9
ESC. SECCIONAL SALINAS,-16.981817,-61.857027,58.86
ESC. SECCIONAL SAN F. DE PARAPETI,-19.988769,-63.139552,68.15
ESC. SECCIONAL SAN LORENZO,-19.649003,-63.124447,56.63
ESC. SECCIONAL SANTA RITA,-17.97818,-63.37109,53.63
ESC. SECCIONAL VILLA FLOR,-17.91508,-63.12761,47.06
ESC. SERAFIN RODRIGUEZ,-18.78667,-63.31145,41.04
ESC. SIBERIA,-17.82761,-64.75382,74.36
ESC. SORAIDA,-14.05581,-67.50439,41.67
ESC. SUB. CENTRAL LA PORFIA,-17.056706,-63.151138,61.8
ESC. TACUARAL DE MATTOS,-14.99362,-66.53598,95.92
ESC. TASETE,-20.011447,-63.641435,81.08
ESC. TATARENDA VIEJA,-19.215102,-63.487451,69.97
ESC. TEMPORAL,-18.635985,-64.076375,25
ESC. TERRACOR,-17.655594,-63.186553,38.41
ESC. TIERRA HERMOZA,-15.391605,-61.541007,91.04
ESC. TIMOTEO RONDALES,-18.130626,-63.634351,32.68
ESC. TOMAS JOSE MORALES,-17.89173,-63.33047,39
ESC. TORRECILLAS,-17.86851,-64.61208,82.82
ESC. U. EDUC. ALFREDO IBAÑEZ FRANCO,-17.85056,-63.24312,47.4
ESC. U.E. 16 DE MARZO,-16.934573,-62.469957,90.65
ESC. U.E. 25 DE JULIO,-15.552925,-60.345923,32.79
ESC. U.E. ALTAMIRA,-16.151864,-62.003965,52.02
ESC. U.E. BETANIA,-16.887313,-63.254748,70.3
ESC. U.E. BOLIVAR,-16.39906,-63.136772,69.43
ESC. U.E. CARANDA,-17.52241,-63.53439,56.84
ESC. U.E. CASCABEL,-17.05944,-64.25111,82.32
ESC. U.E. CHANE BEDOYA,-17.02967,-63.07076,63.91
ESC. U.E. CRUZ DEL TOCOIGO,-16.62491,-61.14905,75
ESC. U.E. EDUARDO AVAROA,-18.05703,-64.12405,64.04
ESC. U.E. EL LIMONAL,-16.60476,-62.948716,86.4
ESC. U.E. EL VELADERO,-18.35126,-64.26523,48.88
ESC. U.E. EMILIA RODAT,-16.35967,-58.40152,49.38
ESC. U.E. GERMAN BUSCH (P. GRETHER),-17.184564,-64.35185,64.39
ESC. U.E. GUALBERTO VILLARROEL,-17.220344,-63.132408,69.36
ESC. U.E. GUAYABA,-16.112016,-62.009577,87.1
ESC. U.E. LA ESTRELLA,-15.57549,-61.51268,66.77
ESC. U.E. LA PALIZADA,-18.06145,-64.43266,58.42
ESC. U.E. LAS ABRAS,-16.31566,-62.62867,91.62
ESC. U.E. LAS MERCEDES,-16.637463,-62.155207,51.35
ESC. U.E. LAS TRANCAS,-16.597499,-61.866984,94.39
ESC. U.E. LUCIO  PEREZ,-17.409295,-63.532196,19.54
ESC. U.E. MARILUZ ESTREMADOIRO,-17.234616,-63.29303,49.32
ESC. U.E. MONTERITO,-16.706607,-61.968337,100
ESC. U.E. NUCLEO CENTRAL,-17.368838,-64.037709,76.03
ESC. U.E. NUCLEO CENTRAL EL CONDOR,-17.428641,-64.128434,79.58
ESC. U.E. NUCLEO CENTRAL LOS POZOS,-17.0136,-64.07143,70.09
ESC. U.E. PADRE PIO,-16.682294,-61.839696000000004,93.06
ESC. U.E. PEDRO DOMINGO MURILLO,-17.63503,-63.57303,87.07
ESC. U.E. PETA GRANDE,-16.444382,-63.68477,76.7
ESC. U.E. POPULAR DON BOSCO,-17.09247,-63.766144,33.38
ESC. U.E. PUERTO AVAROA,-17.287083,-64.185825,70.88
ESC. U.E. SAN ISIDRO,-17.44589,-63.53614,11.62
ESC. U.E. SAN JAVIER,-17.364189,-63.567525,20
ESC. U.E. SAN JUAN DEL CARMEN,-17.098428,-63.187292,61.11
ESC. U.E. SAN LUISITO DE LIMA,-16.79143,-61.22618,94.44
ESC. U.E. SAN PABLO,-16.16368,-62.59928,96.15
ESC. U.E. SAN PEDRO DEL CERRITO,-16.61456,-61.1039,63.83
ESC. U.E. SAN SILVESTRE,-15.873383,-61.865097,60.53
ESC. U.E. SANTA CATALINA CHILON,-18.001979,-64.638255,73.53
ESC. U.E. SANTA MONICA,-15.97295,-62.19145,93.33
ESC. U.E. SANTA RITA,-16.102941,-62.408976,64.41
ESC. U.E. SANTIAGO CORNEN,-17.07392,-63.07765,49.41
ESC. U.E. SANTO ESPOSORIO,-17.358148,-63.608748,16.67
ESC. U.E. SEGUNDA MILLA,-16.506144,-62.91419,23.28
ESC. U.E. SIMON BOLIVAR,-15.33675,-60.42154,50.89
ESC. U.E. TURUX NAPEZ,-16.06091,-62.54155,98.8
ESC. U.E. VICTOR HUGO OTALORA,-17.009792,-63.228351,62.84
ESC. U.E. ZAPOCO,-16.49761,-61.64749,35.71
ESC. U.E.TECNICA VOCACIONAL,-16.36109,-58.40529,51.5
ESC. UB. ANGEL SANDOVAL,-20.455024,-63.521764,39.76
ESC. UE ANGELMIRA MONTE. DE DALENCE,-17.45183,-62.96617,35.02
ESC. UE LAS BARRERAS,-17.448452,-63.180011,47.34
ESC. UE MARIANO VACA MONTERO,-17.427607,-63.056924,42.03
ESC. UE SECCIONAL AZUZAQUI,-17.432345,-63.159461,54.01
ESC. UE SECCIONAL LA MARINA,-17.4187,-63.00195,62.5
ESC. UE TUROBITO,-17.364713,-63.145014,34.13
ESC. UE. NUCLEO CENTRAL CLARA CHUCHIO,-17.616399,-63.104742,33.05
ESC. UNID. EDU.  JUAN LATINO,-17.444301,-63.221114,49.19
ESC. UNID. EDU.  LA REFORMA,-17.26757,-63.070011,50.41
ESC. UNID. EDU.  LOS CHACOS,-17.290664,-63.015351,28.9
ESC. UNID. EDU. 21 DE OCTUBRE,-17.409913,-62.991847,83.23
ESC. UNID. EDU. DON BOSCO,-17.40809,-63.203827,38.9
ESC. UNID. EDU. EL TAJIBO,-17.246978,-62.996463,38.35
ESC. UNID. EDU. SAN MIGUEL,-17.439978,-62.904087,40.06
ESC. UNID. EDU. SECCIONAL EL FUTURO,-17.36139,-63.0559,60.29
ESC. UNID.EDU. SECCIONAL PUERTO NUEVO,-17.179086,-62.790182,23.48
ESC. UNIDAD EDUCATIVA 27 DE MAYO,-18.17142,-63.79241,62.86
ESC. UNIDAD EDUCATIVA ARENALES,-18.957729,-63.720461,20.18
ESC. UNIDAD EDUCATIVA IVICUATI,-20.37102,-63.41391,32.62
ESC. UNIDAD EDUCATIVA MOSQUERA,-18.628841,-63.759888,19.05
ESC. UNIDAD EDUCATIVA NUEVA ESPERANZA,-17.248256,-62.786095,43.68
ESC. UNIDAD SECCIONAL HUARACA,-20.141238,-63.679778,25.23
ESC. UNZAGA DE LA VEGA,-17.846423,-60.739314,33.16
ESC. URBANIZ.MANA,-14.77769,-64.9059,39.41
ESC. USURI APONTE,-17.92564,-63.05743,36.84
ESC. VALLE SANCHEZ,-17.656027,-63.165638,26.75
ESC. VILLA ALBA,-15.06132,-64.68153,51.13
ESC. VILLA BARRIENTOS,-18.01478,-63.35257,80.95
ESC. VILLA FATIMA,-16.964896,-60.603542,29.17
ESC. VILLA ROSARIO,-16.93978,-63.426294,83.09
ESC. VILLA VECINAL,-14.81023,-64.87392,29.57
ESC. YATIRENDA,-18.60128,-63.22488,22.22
ESC. ZANJA HONDA,-18.282737,-63.190677,47.96
ESC..ZENOVIA APONTE,-17.87117,-63.10257,52.23
ESC.4 DE  FEBRERO,-14.84447,-64.90131,38.52
ESC.ALBERTO NATUSCH BUSCH,-14.610746,-61.193592,69.44
ESC.ALEJANDRIA,-12.08011,-65.06511,72.73
ESC.ANGEL CHAVEZ ARZA,-12.89689,-64.24437,72.97
ESC.ANTOFAGASTA,-12.80045,-65.00496,72.26
ESC.ANTOFAGASTA,-10.39382,-65.39104,45.1
ESC.BERNARDO CADARIO(COL.KURT RICHTER),-17.757516,-63.194446,23.59
ESC.BRITANICA,-11.01523,-66.05006,33.85
ESC.BUEN JESUS,-14.98918,-64.37089,35.98
ESC.BUENA VISTA,-12.45551,-64.23037,51.56
ESC.CAIMANES,-15.16342,-64.05082,43.51
ESC.CAMIACO,-15.33278,-64.86686,35.15
ESC.CAP.ARTURO CUELLAR REA,-13.045145,-64.667118,47.02
ESC.CARMELO LOPEZ,-13.65491,-63.69662,43.6
ESC.CEC EL TOTAISAL,-14.877911,-66.327083,61.84
ESC.CENTRAL 1O. DE MAYO,-12.65748,-63.37995,91.67
ESC.CENTRAL 2 DE AGOSTO,-15.24271,-63.86697,59.93
ESC.CENTRAL EL PORVENIR,-13.986032,-61.546949,60.34
ESC.CENTRAL NUEVOS HORIZONTES,-14.59985,-67.27888,63.69
ESC.CENTRAL PALMA FLOR,-12.96253,-66.6287,34.43
ESC.CENTRAL PIEDRAS BLANCAS,-14.78934,-67.15208,85.77
ESC.CENTRAL PISO FIRME,-13.630756,-61.737427,63.16
ESC.CENTRAL PUERTO CAVINAS,-12.53129,-66.91502,63.78
ESC.CENTRAL SAN IGNACITO,-15.4581,-65.64748,71.43
ESC.CENTRAL SAN LORENZO,-11.73968,-65.23228,59.52
ESC.CENTRAL SANTA ROSA,-15.22264,-65.85181,88.76
ESC.CHACO LEJOS,-12.83958,-64.9071,67.86
ESC.COOPERATIVA,-12.6354,-65.04883,57.78
ESC.COQUINAL,-12.97027,-65.85875,78.26
ESC.CORINA HURTADO DE,-14.84378,-64.89422,39.3
ESC.DE MANKAILLPA,-18.39356,-64.215993,18.52
ESC.DE PUERTO YUCUMO,-15.19761,-66.93755,94.01
ESC.EL CAIRO,-13.72575,-63.72225,53.85
ESC.EL CANDADO,-13.50823,-66.84259,67.53
ESC.EL CARMEN,-14.23021,-63.80146,39.43
ESC.EL CARMEN DE RUIZ,-16.047551,-61.098951,23.45
ESC.EL CHACAL,-14.75295,-66.62759,98.97
ESC.EL MOTACUSAL,-12.91581,-65.4307,51.43
ESC.EL PALMAR,-14.97903,-67.08794,76.89
ESC.EL POYORI,-13.00931,-64.42094,83.78
ESC.EL REMANZO,-13.52387,-61.8741,55.32
ESC.EL TRIUNFO,-13.86169,-66.76116,46.85
ESC.EL TROMPILLO,-13.11602,-65.11865,40
ESC.FATIMA,-14.91402,-65.34778,43.59
ESC.FELIX SATTORY ROMAN,-11.00182,-66.06739,23.63
ESC.GALILEA,-16.953517,-63.67821,82.16
ESC.GERARDO REYES,-14.07916,-66.79248,30.72
ESC.GERMAN BUSCH,-14.85664,-66.74983,31.01
ESC.GIL COIMBRA,-13.25954,-64.05195,43.38
ESC.GUALBERTO VILLARRUEL,-14.44452,-67.5281,38.85
ESC.GUNDONOVIA,-15.51444,-65.11512,39.23
ESC.HUGO BANZER SUAREZ,-17.88131,-63.1536,50.5
ESC.HUMBERTO VELARDE,-15.02232,-64.66631,49.54
ESC.J. CHAVEZ SUAREZ,-14.8414,-64.90463,38.27
ESC.J. LORENZO CAMPERO,-14.8257,-64.89998,29.5
ESC.J.AZURDUY DE PADILLA,-14.82634,-64.8893,28.06
ESC.JESUS ALVAREZ,-14.29483,-67.3343,41.27
ESC.JOSE BALLIVIAN,-13.26313,-64.05527,43.85
ESC.JOSE MAX PAREDES,-13.32101,-65.25107,63.39
ESC.JUAN ALBERTO ORELLANA,-13.59328,-63.87964,41.51
ESC.JUDDI DE SUAREZ,-10.53687,-65.58167,28.11
ESC.JUNRRENO,-14.37257,-66.93327,51.61
ESC.LA ARGENTINA,-14.828430000000001,-65.32679,64.18
ESC.LA CAYOBA,-13.09004,-64.08502,32.84
ESC.LA EMBOCADA,-14.97601,-66.73125,60.98
ESC.LA ISIGA-PERSEVERA,-15.39423,-64.32283,40.54
ESC.LA LAJA,-18.254157,-64.295832,39.24
ESC.LAGUNILLAS,-19.65222,-63.67723,46.7
ESC.LAS ABRAS,-14.4615,-66.93307,91.78
ESC.LAS PEÑITAS,-12.63922,-64.39467,100
ESC.LIMONCITO,-16.761648,-63.066718,71.56
ESC.LITORAL,-14.97235,-65.57434,90.38
ESC.LOMA LARGA,-18.763414,-63.901474,22.09
ESC.LOS MONTES DE ORO,-14.33763,-65.8585,50
ESC.MAMERTO CUELLAR COSTA,-17.69388,-63.16402,26.37
ESC.MARY RIBERA G.,-14.81399,-64.88783,30.83
ESC.MASICURI,-18.83035,-63.7827,30.13
ESC.MAYOR PEDRO VACA DIEZ,-14.86952,-64.96582,53.02
ESC.MERCEDES DE LOJOJOTA,-16.5034,-65.57259,87.88
ESC.MIRAFLORES,-15.709298,-60.398978,19.35
ESC.MONTE GRANDE,-15.63879,-65.82966,80.25
ESC.MONTE MAE,-15.53512,-65.72498,42.86
ESC.MUNICIPAL,-17.70868,-61.17406,38.6
ESC.NAPOLEON AÑEZ ORTIZ,-13.26702,-64.61865,44.35
ESC.NARANJO,-18.426721,-64.25041,19.12
ESC.NICOLAS SUAREZ,-14.83268,-64.90492,25.43
ESC.NUCLEO AÑAPACO,-18.432917,-64.283173,37.5
ESC.NUCLEO CENTRAL ESPIRITU,-16.187238,-60.528236,30.51
ESC.OVIDIO ROCA C.,-15.55553,-65.55151,46.68
ESC.PEÑA AMARILLA,-11.5471,-66.67179,15.38
ESC.PERFECTA VDA. DE BEJARANO,-15.19398,-64.76012,59.63
ESC.PEROTO,-14.97516,-64.63706,41.84
ESC.PTO.SAN LORENZO,-15.77166,-65.4773,52.87
ESC.PUERTO BALLIVIAN,-14.79312,-64.97205,52.99
ESC.PUERTO YATA,-13.45108,-66.63308,28.32
ESC.RETIRO,-15.34924,-65.80604,98.06
ESC.ROSARIO DEL YATA,-10.99195,-65.57995,56.02
ESC.S.JUAN DEL REMANZO,-14.67902,-66.5321,82.05
ESC.SACHOJERE,-14.98731,-64.75289,56.11
ESC.SAN ANTONIO,-15.1992,-64.99944,51.85
ESC.SAN ANTONIO,-14.83844,-64.91032,32.9
ESC.SAN ANTONIO DE IMOSE,-15.95693,-65.35487,42.17
ESC.SAN CARLOS,-13.23234,-65.70103,75
ESC.SAN FRANCISCO,-15.41029,-65.35629,68.52
ESC.SAN JOSE,-14.82626,-64.90439,25.04
ESC.SAN JOSE AGUIRRE ACHA,-18.30182,-64.15065,47.64
ESC.SAN JOSE DE PATROCINIO,-15.7724,-65.29938,9.09
ESC.SAN JOSE DEL CABITU,-15.26368,-65.9744,77.56
ESC.SAN JUAN DE AGUAS DULCES,-14.80817,-64.57809,24.72
ESC.SAN LORENZO,-16.708375,-61.872912,98.05
ESC.SAN LORENZO,-15.03478,-64.7207,51.43
ESC.SAN MIGUELITO ISIBORO,-16.52943,-65.44078,90.48
ESC.SAN PABLO DE LA LADERA,-18.43097,-63.924623,48.57
ESC.SAN PABLO-ISIBORO,-15.70741,-65.14317,76.52
ESC.SAN SIMON,-13.61491,-62.02819,69.7
ESC.SAN VICENTE,-16.272858,-60.075247,42.99
ESC.SANTA ANA,-18.59265,-64.14568,49.02
ESC.SANTA ANA,-16.585163,-60.68709,23.25
ESC.SANTA ELENA DEL CARIPO,-14.5799,-66.82342,61.39
ESC.SANTA MARIA,-13.11831,-63.825,34.52
ESC.SANTA ROSA,-15.10586,-64.244,53.94
ESC.SANTA ROSA,-13.51003,-66.16964,55.56
ESC.SANTA ROSA,-12.29405,-65.11021,23.73
ESC.SANTA ROSA ROCA,-15.9136,-61.43752,44.32
ESC.SECCIONAL CAFETAL,-13.49341,-61.88521,66.94
ESC.SECCIONAL CHOCHIS,-18.148974,-60.031024,20.81
ESC.SOLIDARIDAD 55,-17.88467,-63.09384,52.53
ESC.SOMOPAE,-14.94441,-64.65401,48.17
ESC.SUB-CENTRAL PUEBLO NUEVO,-15.24535,-65.88788,84.38
ESC.TIERRAS NUEVAS,-18.484212,-63.903618,14.71
ESC.TRINIDACITO,-15.76319,-65.30994,12.9
ESC.TTE.ROMAN ALDERETTE,-18.35822,-64.15926,40.14
ESC.UNID EDU.  VILLA REYES,-17.39157,-62.82537,56.45
ESC.UNID.EDU.    MOTACU,-17.555541,-63.118129,30.35
ESC.VILLA BANZER,-14.94876,-64.41677,60.94
ESC.WENCESLAO AÑEZ,-14.60486,-65.63189,45.43
ESCUELA 12 DE OCTUBRE,-11.0167,-65.69309,53.03
ESCUELA 13 DE ABRIL,-14.836254,-64.884349,41.38
ESCUELA 1RO DE DICIEMBRE,-11.01311,-66.07318,26.59
ESCUELA 1RO DE MAYO,-17.79881,-63.12766,22.48
ESCUELA 23 DE MARZO,-18.09747,-63.34325,83.94
ESCUELA 23 DE MARZO,-17.718285,-63.14704,34.3
ESCUELA 4 DE JULIO,-15.73327,-63.46377,84.78
ESCUELA 6 DE AGOSTO,-17.72828,-63.21883,7.64
ESCUELA ADOLFO BURTON,-16.27246,-62.50405,35.16
ESCUELA ADOLFO ROMAN HIJO,-17.6432,-62.823514,35.75
ESCUELA ALTO IVON,-11.87361,-66.03656,98.31
ESCUELA ANDRES IBAÑEZ,-18.02817,-63.40279,54.44
ESCUELA AUSTRALIA,-12.78946,-66.52208,50
ESCUELA BOLIVAR,-11.00223,-65.9,51.75
ESCUELA BRASIL,-10.8307,-65.3572,31.75
ESCUELA CANOTO,-17.78442,-63.19444,18.21
ESCUELA CASARABE,-14.87161,-64.47997,43.42
ESCUELA CENTRAL ANICETO PARADA ROCA,-17.6197,-63.44804,15.64
ESCUELA CENTRAL FE Y ALEGRIA,-19.790759,-63.196864,39.49
ESCUELA CENTRAL SOMBRERITO,-17.88821,-63.36818,50
ESCUELA CORTE HONDO,-16.648464,-64.746951,89.71
ESCUELA DE BERMEO,-14.89496,-65.3772,62.96
ESCUELA DE CALIFORNIA,-11.95482,-66.90263,58.49
ESCUELA DE NUEVA BETANIA,-15.02995,-64.34632,57.75
ESCUELA DEMETRIO AÑEZ,-17.66665,-62.79085,44.78
ESCUELA EDUARDO ABAROA,-11.30087,-66.95135,31.51
ESCUELA EDUARDO AVAROA,-17.02607,-62.93443,70.38
ESCUELA EL ORIENTE DEL YACUMA,-14.35404,-66.99512,56.41
ESCUELA EL ROSARIO,-13.82903,-66.71803,48.31
ESCUELA ELVIRA,-14.92893,-64.60383,42.37
ESCUELA EMILIO CAMPOS PEDRIEL,-14.81962,-64.8847,31.86
ESCUELA ESPIRITU SANTO,-14.63469,-64.80295,61.76
ESCUELA GERMAN BUSCH,-17.73404,-62.93764,68.18
ESCUELA IRENIA MONTERO,-17.87279,-63.4469,72.16
ESCUELA IVIATO,-14.83285,-64.44854,45.03
ESCUELA JESUS GOMEZ,-17.736893,-63.011014,41.94
ESCUELA JOSE GIL SORUCO,-17.95629,-63.2532,40.96
ESCUELA KM 9,-17.6916,-63.15509,27
ESCUELA LAGUNA COLORADA,-14.63861,-64.63057,57.58
ESCUELA LIMONCITO,-15.73327,-63.46377,48.28
ESCUELA LOS ALMENDROS,-10.83402,-65.3472,37.94
ESCUELA LOS TAJIBOS,-11.02086,-66.04456,37.39
ESCUELA LUZ Y VERDAD,-16.63566,-62.91896,71.26
ESCUELA MAESTRO PITAGORAS,-17.89535,-63.29059,59.95
ESCUELA MARIPOSA,-12.27631,-66.1415,37.04
ESCUELA NAZARETH,-11.38739,-66.3375,31.03
ESCUELA NUEVA AURORA,-17.577191,-62.824901,20
ESCUELA NUEVA ESPERANZA,-17.86146,-63.26702,32.58
ESCUELA NUEVA ISRAEL,-14.67209,-64.3355,48.28
ESCUELA NUEVA MAGDALENA,-15.48585,-63.69929,73.5
ESCUELA NUEVA TRINIDAD,-14.82357,-64.8754,38.19
ESCUELA PEDRO IGNACIO MUIBA,-14.49183,-64.08376,53.75
ESCUELA PETROLERA,-11.00229,-66.05014,31.95
ESCUELA PRIMAVERA,-17.81673,-63.1032,31.22
ESCUELA PUERTO ICHILO,-17.74908,-63.23566,26.51
ESCUELA PUERTO RICO,-18.00683,-63.39142,59.29
ESCUELA PUERTO SANTIAGO,-13.10789,-65.20205,31.25
ESCUELA REP. DE MEXICO,-17.7372,-62.95778,75.57
ESCUELA SAN CARLOS,-17.7572,-63.18186,16.2
ESCUELA SAN JAVIER,-14.59987,-64.88087,49.82
ESCUELA SAN JOAQUIN,-17.722381,-63.136676,35.28
ESCUELA SAN JUAN DEL JORDAN,-12.88492,-66.42942,45.45
ESCUELA SAN LORENZO,-17.76947,-63.24335,26.97
ESCUELA SAN PEDRO,-14.33668,-64.90086,48.86
ESCUELA SANTA MARIA,-11.1185,-65.93813,57.74
ESCUELA SANTA MARTHA,-17.96476,-63.36341,66.67
ESCUELA SANTA ROSA DEL CHAPARE,-15.939349,-64.757217,22.22
ESCUELA SANTÍSIMA TRINIDAD,-16.61358,-65.76534,72.9
ESCUELA SANTUARIO,-11.5389,-66.4724,48.89
ESCUELA SECCIONAL AQUIO,-19.70833,-63.68824,25.76
ESCUELA SECCIONAL GUAPILO,-17.760562,-63.081403,35.49
ESCUELA SECCIONAL SAIPURU,-19.522041,-63.23007,45.63
ESCUELA SECCIONAL ZAFRANILLA,-17.62794,-63.00508,34.32
ESCUELA TAJIBOTE,-15.63134,-64.08765,66.67
ESCUELA TARUMATU,-17.65729,-63.24299,23.99
ESCUELA TIQUIPAYA,-18.08387,-63.45114,77.03
ESCUELA TUNAS NUEVO,-17.639084,-61.712867,82.14
ESCUELA U.E CLUB SOCIAL 24 DE SEPTIEMBRE,-17.69314,-63.0174,43.96
ESCUELA UNID. EDU.NUEVO HORIZONTE,-17.32424,-62.80159,29.86
ESCUELA UNIDADEDUCATIVA OSCAR ALFARO,-17.79542,-63.01909,78.27
ESCUELA VILLA LOURDES,-14.42944,-67.5043,50.69
ESCUELA WARNES,-10.92752,-65.96947,38.6
ESCUELA. COLEGIO EVANGELICO METODISTA,-17.219152,-62.889175,32.99
ESCUELA.COL. SAN MARCOS,-17.75545,-62.98962,42.02
ESCUELA.COLEGIO LORENZO CORTEZ RIVERA,-17.75099,-62.9951,33.27
ESCUELA.COLEGIO MANUEL ANGEL CORTEZ,-17.75491,-63.0035,38.8
ESCUELA.U.E. CALLEJAS,-17.75099,-62.9951,30.33
FACULTAD DE CIENCIAS AGRICOLAS UAGRM,-17.698143,-63.148744,29.35
FRED NUÑEZ GONZALES,-17.717763,-63.069608,53.59
GLADYS RIVERO DE JIMENEZ,-17.77348,-63.20806,29.05
INFOCAL,NA,NA,30.3
KINDER CARIÑOSITO,-17.849401,-63.214436,33.33
KINDER FERROVIARIO,-17.781,-63.145,36.84
KINDER GUARDERIA EL CARMEN,-17.77054,-63.203832,13.33
KINDER JHON F. KENNEDY,-10.99814,-66.06571,24.5
KINDER LIBERTAD,-17.800112,-63.120663,12.5
KINDER LUISA SAUCEDO,-17.77909,-63.18323,10.09
KINDER MI DULCE HOGAR,-15.898185,-63.187917,54.08
KINDER NIMIA CENTELLA,-17.78436,-63.11775,11.43
KINDER SANTA MARIA,-18.486182,-64.101602,36.4
KINDER VICTOR LEON ARUETA (VACA DIEZ MEDIO),-11.021086,-68.760128,28.31
L.GILFREDO CORTEZ CANDIA,-14.99516,-65.64448,60.97
LIC.MIXTO GUAYAMERIN,-10.82098,-65.35883,34.19
LICEO MARIO SAIELLY,-14.83593,-64.90276,29.53
LUZ DEL MUNDO C,-17.77199,-63.1118,30.99
MADRE TERESA DE CALCUTA,-17.87858,-63.23131,54.58
MEDIO MONTE,-16.52462,-62.07742,90.65
MISIONES DE JESUS,-17.84764,-63.21696,43.72
MODULO EDUCATIVO 24 DE SEPTIEMBRE,-17.819547,-63.205039,30.48
MODULO EDUCATIVO 3 LAGUNAS,-17.80221,-63.1305,41.86
MODULO EDUCATIVO CENETROP,-17.868277,-63.175314,38.46
MODULO EDUCATIVO GERMAN BUSCH,-17.735019,-63.174423,14.29
MODULO EDUCATIVO JARDIN LATINO,-17.811045,-63.226846,16.13
MODULO EDUCATIVO JOSE MIGUEL DE VELASCO,-17.75368,-63.18459,17.73
MODULO EDUCATIVO MARIA DE MATTIAS,-17.844515,-63.193289,26.92
MODULO EDUCATIVO REPUBLICA DE COLOMBIA,-17.860021,-63.20602,56.25
MODULO RANCHO NUEVO,-17.74573,-63.12128,36.14
MONTE SINAI,-16.230472,-63.298932,85.12
MOTACUSAL,-17.68219,-63.10342,89.15
NACIONES UNIDAS,-17.732546,-63.177396,24.3
NUCLEO CENTRAL LA ENCONADA,-17.056273,-63.895757,66.94
NUCLEO CENTRAL TARUMA,-18.11805,-63.46047,51.99
NUCLEO ESCOLAR LA EMBROLLA,-13.6832,-63.82495,80.77
NUCLEO SAN CARLOS,-18.13221,-63.33423,41.79
PEDRO DIEZ,-17.85394,-63.18398,36.64
PEDRO PABLO PEÑA GARCIA,-16.752924,-61.934605,100
POLITECNICO BENJAMIN BOWLES,-11.00485,-66.05167,32.44
POLITECNICO PENTAGUAZU,-17.595012,-63.130667,56.6
PROGRESO,-17.72208,-63.13077,30.28
SAHARA GUARDIA,-17.85209,-63.20287,28.42
SANTA ROSA DEL ISIBORO,-16.26001,-65.20737,76.81
SECCIONAL PARABANOCITO,-18.22056,-63.46001,57.94
U. E.  AMERICA,-11.01896,-68.75782,31.46
U. E. 11 DE OCTUBRE,-11.037167,-68.770393,39.65
U. E. COBIJA,-11.027927,-68.760207,36.66
U. E. INSTITUTO AMERICANO,-11.024932,-68.760995,32.44
U. E. JOSÉ MANUEL PANDO,-11.03101,-68.774197,41.33
U. E. JUANA AZURDUY DE PADILLA,-11.03087,-68.754595,35.5
U. E. MANUELA ROJAS,-11.016534,-68.77937,33.83
U. E. MARISCAL SUCRE,-11.038379,-68.774029,46.83
U. E. ROGELIA MENACHO DE BALCAZAR,-11.039107,-68.766762,39.75
U. E. SIMON BOLIVAR,-11.037694,-68.787253,44.81
U. E. SOFIA CALPIÑEIRO,-11.011823,-68.754981,33.16
U. E. TENTA PIAU,-19.557886,-63.668154,52.94
U. E. VACA DIEZ (INTERMEDIO),-11.018514,-68.756254,40.93
U. E. VACA DIEZ (MEDIO),-11.02054,-68.76039,31.83
U.A.B. (CARRERA DE DERECHO),-14.83274,-64.91308,30.67
U.E . SAN JUAN,-17.60646,-63.10375,50.18
U.E 15 DE AGOSTO,-14.83425,-64.92943,41.87
U.E 19 DE MARZO,-17.86819,-63.08685,68.84
U.E EL CORRALON,-16.279411,-63.287104,86.81
U.E FEDERICO DEMMER,-10.99968,-66.04344,31.88
U.E GONZALO SUAREZ D.,-14.85325,-64.90136,34.76
U.E LUIS ESPINAL CAMS,-14.840913,-64.925073,43.82
U.E MARCA COROICO,-14.78361,-67.08862,85.71
U.E MIGUEL ANTELO,-10.82256,-65.34438,37.64
U.E SAN IGNACIO DEL MANIQUI,-14.85899,-66.72903,44.29
U.E VILLA SAN ANTONIO,-14.87003,-66.74652,43.24
U.E.  12 DE ABRIL,-10.82638,-66.18632,40
U.E.  2 DE AGOSTO,-11.45478,-67.05062,21.54
U.E.  23 DE MARZO,-10.4217,-66.30795,49.25
U.E.  24 DE SEPTIEMBRE,-11.72435,-66.9321,66.27
U.E.  6 DE JUNIO,-11.30354,-66.84736,96.72
U.E.  ANDRES IDAGUA,-10.79472,-65.96667,53.35
U.E.  BRUNO RACUA,-11.34711,-66.98441,49.33
U.E.  FEDERICO HECKER,-12.17911,-66.9248,55.07
U.E.  FLORIDA,-12.19954,-68.63426,61.8
U.E.  GENOVEVA RIOS,-11.28025,-69.06962,47.64
U.E.  GENOVEVA RIOS,-11.27083,-66.80064,44.23
U.E.  GERMAN BUSCH,-11.30694,-67.17651,54.52
U.E.  GUTEMBERT CRUZ,-11.255533,-68.877287,42.86
U.E.  HUGO ANTEQUERA,-11.08514,-67.89793,42.02
U.E.  JORGE HAENSEL,-10.94822,-66.44067,34.85
U.E.  JUANCITO PINTO,-11.87768,-68.98754,59.2
U.E.  KM. 35 DE KARAMANU,-11.161918,-68.326393,65
U.E.  KM. 60 DE SAN ANTONIO,-11.16999,-68.09121,64.03
U.E.  LA SALLE EMETERIO RUIZ,-11.10394,-67.5565,51.71
U.E.  LOS MANDARINOS,-11.24423,-67.44718,54.17
U.E.  MANUEL ESTREMADOIRO MARTINEZ,-10.05819,-65.34017,40.23
U.E.  MONTE SINAI,-10.25371,-65.31994,90.98
U.E.  PORTACHUELO DIOS ES AMOR,-11.26265,-66.288572,84.23
U.E.  ROBERTO GONZALES,-10.733076,-65.908786,57.3
U.E.  SAN ANTONIO,-11.29652,-67.39052,81.71
U.E.  SANTA LUCIA,-11.25383,-69.01627,42.11
U.E.  SILVERIO ROJAS GONZALES,-11.470248,-67.257814,60.64
U.E.  SOLEDAD,-11.57613,-66.9871,56.8
U.E.  ZACARIAS MORENO,-10.87283,-67.48418,36.82
U.E. 11 DE SEPTIEMBRE,-10.330903,-66.424379,70.06
U.E. 12 DE ABRIL,-17.338281,-63.258308,52.1
U.E. 12 DE OCTUBRE,-17.543294,-61.510575,31.58
U.E. 15 DE AGOSTO,-16.0462,-61.221,84.47
U.E. 18 DE JULIO,-17.7454,-63.0932,45.95
U.E. 19 DE MARZO,-16.298085,-61.031596,NaN
U.E. 2 DE ABRIL,-17.81759,-63.14366,19.63
U.E. 2 DE AGOSTO,-11.36894,-66.41665,67.65
U.E. 21 DE SEPTIEMBRE,-11.5493,-66.93037,60
U.E. 24 DE JUNIO,-17.017444,-63.379794,82.72
U.E. 24 DE MARZO,-17.729421,-63.101308,65.07
U.E. 24 DE SEPTIEMBRE,-19.751458,-63.194817,71.43
U.E. 25 DE OCTUBRE,-17.81277,-63.0919,54.12
U.E. 26 DE JUNIO,-17.845325,-63.102148,57.26
U.E. 26 DE NOVIEMBRE,-17.730587,-63.131925,31.11
U.E. 27 DE ABRIL,-16.863758,-62.611868,61.54
U.E. 27 DE MAYO,-11.44472,-66.677294,73.88
U.E. 4 DE AGOSTO,-12.175625,-67.019254,69.05
U.E. 5 DE SEPTIEMBRE,-17.53204,-63.693,94.25
U.E. 6 DE AGOSTO,-17.408784,-63.610642,15.75
U.E. 6 DE AGOSTO,-11.283606,-66.819011,100
U.E. 9 DE ABRIL,-10.840114,-65.361814,40.54
U.E. ABUNA,-10.60663,-67.45408,48.88
U.E. AGUA DULCE,-11.00872,-66.20935,53.79
U.E. AKUALAND,-17.644026,-63.172042,33.02
U.E. ALIANZA EL PROGRESO,-17.05495,-63.219598,73.58
U.E. ALICE ALVAREZ DE AREDONDO I,-17.118638,-63.230644,43.52
U.E. ALTA GRACIA,-11.60331,-68.25834,92.11
U.E. ALTAMIRA,-16.715139,-61.0463,86.96
U.E. ANGEL FOIANINI BANZER II,-17.8802,-63.2851,46.06
U.E. ANTONIO ANZUATI,-17.536951,-63.171488,66.01
U.E. APONTE DE JORORI,-17.88749,-63.02875,61.93
U.E. ARBOLEDA DE FATIMA,-17.77194,-63.09396,32.04
U.E. ARCA DE NOE,-17.747091,-63.099402,38.42
U.E. ARMINDA MERCADO P.,-17.220026,-63.278794,24
U.E. AUGUSTO GUTIERREZ BANZER,-10.85149,-67.35876,74.36
U.E. AYACUCHO,-17.86675,-63.219054,61.32
U.E. BARRIO LINDO,-17.89636,-63.26904,55.3
U.E. BATRAJA,-11.29704,-67.32244,49.28
U.E. BELEN,-10.83641,-65.35558,38.86
U.E. BELLA FLOR,-11.330173,-66.211784,55.07
U.E. BENJAMIN BANEGAS VACA,-17.125899,-63.228782,46.09
U.E. BERNARDO MONTEAGUDO,-15.22893,-61.43381,93.41
U.E. BIBOSI,-17.72477,-63.109756,50
U.E. BICENTENARIO,-17.98782,-63.38105,58.72
U.E. BICENTENARIO ARCO IRIS,-17.86212,-63.221398,35.63
U.E. BICENTENARIO II,-17.98782,-63.38105,33.33
U.E. BIOCEANICA,-11.13272,-69.37039,38.84
U.E. BRUNO RACUA,-11.237727,-68.689359,57.5
U.E. BUENA FE,-17.5464,-63.0742,70.47
U.E. BUENA VISTA,-17.822138,-59.972446,39.13
U.E. BUENA VISTA,-11.09413,-67.67737,41.03
U.E. BUYUYO,-11.61425,-68.80491,72.95
U.E. CAMPO ROSSO 4 DE ABRIL,-17.59862,-63.13654,51.63
U.E. CARMEN ALTO,-11.71022,-66.36278,53.01
U.E. CARPARICITO,-19.802275,-63.662286,66.15
U.E. CELEDONIO CORTEZON,-16.03947,-61.15897,NaN
U.E. CHIVE,-12.39163,-68.58688,48.28
U.E. CIELITO LINDO,-17.77039,-63.10667,31.68
U.E. CLARA SERRANO,-17.698088,-63.067643,50.75
U.E. CORDECRUZ,-17.847446,-63.247476,42.18
U.E. CURICHON,-11.94377,-68.569041,50.52
U.E. DE BELLA VISTA,-11.067001,-68.786023,48.09
U.E. DE BOLPEBRA,-10.94741,-69.56477,64.29
U.E. DE FLORIDA,-11.121167,-67.607624,94.44
U.E. DE HOLANDA,-11.76399,-68.71101,68
U.E. DE IBERIA,-11.69689,-66.74494,68.97
U.E. DE LA CRUZ,-12.026815,-68.122221,70.97
U.E. DE LAS ARENAS,-11.58415,-67.69072,80.95
U.E. DE MUKDEN,-11.1877,-69.02858,21.13
U.E. DE PALESTINA,-11.03269,-67.09533,55.36
U.E. DE PEKIN,-12.00184,-67.65797,38.57
U.E. DE ROSARIO,-12.29388,-66.93926,48.08
U.E. DE YAMINAHUA,-10.93892,-69.42874,69.81
U.E. DEFENSORES DEL ACRE,-11.023385,-68.776279,40.48
U.E. DERREPENTE,-10.93787,-66.94105,33.93
U.E. EL ARENAL,-20.40366,-63.51412,94.62
U.E. EL ARENAL C,-17.762861,-63.123807,61.54
U.E. EL MANANTIAL,-17.60827,-63.12106,43.63
U.E. EL SALAO,-18.977313,-57.828798,25
U.E. EL SENA,-11.48288,-67.24951,46.1
U.E. EL TURI (RIO MANURAPE),-11.69199,-67.28406,32.5
U.E. ENAREVENA,-10.57579,-66.10579,45.1
U.E. FILADELFIA,-11.345919,-68.757024,53.85
U.E. FORTALEZA,-10.84701,-66.32966,56.25
U.E. GALILEA,-11.41806,-66.56686,70.9
U.E. GENOVEVA RÍOS,-10.9903,-67.42355,79.17
U.E. GERMAN BUSCH,-11.084813,-68.781309,41.55
U.E. GRAL. FEDERICO ROMÁN,-10.47329,-65.50873,34.48
U.E. GREGORIA DESTRE MATURANA,-11.1674,-66.5792,63.98
U.E. GUILLERMO JORDAN,-16.91677,-62.621492,72
U.E. HACIA LA CUMBRE,-17.791147,-63.131139,22.39
U.E. HAZIEL,-17.223649,-62.151999000000004,19.91
U.E. HERNANDO ZANABRIA,-17.897343,-63.284307,60.08
U.E. HIROSHIMA,-11.39288,-67.83469,26.09
U.E. HUMAITA,-10.82152,-66.44747,50.96
U.E. IGNACIO WARNES,-17.50828,-63.166855,40.98
U.E. ING. JORGE MAURICIO ROJAS P.,-17.66311,-62.768739,30.33
U.E. INGAVI,-10.95218,-66.82959,53.26
U.E. INTEGRACION DE LAS AMERICAS,-17.88183,-63.27132,85.14
U.E. ISUTO,-17.74409,-63.19371,24.06
U.E. JORGE BENITO VERA,-10.337642,-67.194509,50.75
U.E. JOSE CHAVEZ,-15.99493,-61.422436,44.59
U.E. JOSE DAVID BERRIOS,-16.901255,-62.632186,66.67
U.E. JOSE FERREIRA,-15.389161,-60.966249,39.02
U.E. JOSE MANUEL VACA,-17.509445,-63.16396,40.71
U.E. JOSE MARIANO SERRANO,-17.837741,-63.259458,48.54
U.E. JOSE ORTIZ SENAR,-16.229512,-61.950802,90.48
U.E. JOSE PESSOA,-15.46235,-60.89307,39.47
U.E. JOSEFINA BALSAMO CORDECRUZ,-17.730587,-63.131925,13.04
U.E. JOSEFINA BALSAMO LOS PINOS,-17.733023,-63.138265,35.58
U.E. JOSERAVI,-18.331839,-62.294156,40.98
U.E. JUAN LUIS OTIN,-19.978201,-63.091266,54.88
U.E. JUANA AZURDUY,-17.412171,-63.903867,60.38
U.E. JUANA AZURDUY DE PADILLA,-10.800389,-66.115933,58.11
U.E. JUANCITO PINTO,-17.58141,-63.142607,78.42
U.E. JUANCITO PINTO,-17.351872,-63.278663,68.16
U.E. LA CURVA,-14.58863,-64.20807,61.05
U.E. LA ESPERANZA,-11.065286,-66.0544,34.62
U.E. LA GRAN CRUZ,-10.36206,-65.401212,87.93
U.E. LAS AMALIAS,-10.97642,-66.79862,95.83
U.E. LAS CRUCES,-17.769627,-63.355385,29.41
U.E. LAS MERCEDES,-11.87276,-67.27101,50
U.E. LAS PEÑAS,-12.63922,-64.39467,50
U.E. LIC. ZACHARY MACY,-17.999197,-63.385014,62.69
U.E. LOS CUSIS,-17.73135,-63.07648,34.02
U.E. LUIS ANTONIO AÑEZ CAMPOS,-17.838165,-63.121047,56.64
U.E. LUZ DE AMERICA,-12.12153,-68.6104,52.29
U.E. LUZ DE ESPERANZA,-17.850111,-63.275124,36.14
U.E. LUZ EN EL CAMINO,-11.08213,-66.17489,55.16
U.E. MACEDONIO PAZ PINO,-13.27234,-63.70535,49.33
U.E. MACHIPO,-19.838954,-63.178835,59.09
U.E. MANANTIAL DE VIDA,-17.852235,-63.072591,60.59
U.E. MANCHESTER,-11.47539,-67.999,30.51
U.E. MANGUITO,-14.89842,-66.63986,87.42
U.E. MANOS UNIDAS,-17.837048,-63.128691,55.17
U.E. MAPAJO,-10.62717,-67.6199,52.94
U.E. MARCELIANO MONTERO,-17.346226,-63.251812,20.36
U.E. MARCELO QUIROGA SANTA CRUZ,-17.253341,-63.237721,77.03
U.E. MARIA DE LAS CANDELARIAS,-17.780873,-63.112536,0
U.E. MARIANO BAPTISTA (EDIFICIO SEDUCA),-11.022279,-68.757394,31.8
U.E. MATEO KULJIS LLIC II,-17.837611,-63.225407,41.67
U.E. MAXIMO NOVILLO,-17.60827,-63.12106,62.7
U.E. MERCEDES DE LAS MINAS,-16.38784,-60.87927,43.75
U.E. MIGUEL APONTE,-17.931516,-63.027941,0
U.E. MIRAFLORES,-11.10459,-66.40204,77.44
U.E. MONS. SANTISTEBAN,-11.237166,-68.689126,53.28
U.E. MONTE CARMELO,-17.598479,-63.116425,50.94
U.E. MOTACUCITO,-18.997497,-57.868878,66.67
U.E. NACIONAL LA GUARDIA,-17.892361,-63.320249,49.65
U.E. NATANIEL GARCIA CHAVEZ,-17.87858,-63.23131,37.23
U.E. NESTOR PAZ ZAMORA,-17.82976,-63.16751,35.12
U.E. NUBIASIX,-16.339511,-62.136902,70.91
U.E. NUESTRA SEÑORA DEL CARMEN,-10.99875,-66.07724,28.81
U.E. NUEVA ALIANZA,-11.37201,-68.35039,55.48
U.E. NUEVA CANAÁN,-11.14435,-69.22169,63.38
U.E. NUEVA EMPRESA,-11.49919,-68.81753,58.81
U.E. NUEVA ESPERANZA,-11.1152,-68.88235,34.57
U.E. NUEVA JERUSALEN-PENTAGUAZU,-17.602407,-63.128957,57.88
U.E. NUEVO HORIZONTE,-17.313131,-64.152104,84.55
U.E. NUEVO HORIZONTE,-11.518724,-66.778062,52.38
U.E. NUEVO MILENIO,-17.320771,-63.246956,61.96
U.E. ORLANDO MONASTERIO CLAURE,-14.8181,-64.93098,39.11
U.E. PAITITI,-17.559798,-63.175175,69.64
U.E. PALERMO,-15.766938,-64.971922,61.9
U.E. PALMA REAL,-11.65824,-67.72301,46.71
U.E. PALMAR DEL ORIENTE,-17.845564,-63.163259,32.35
U.E. PALMITO,-18.91338,-58.40663,38.24
U.E. PAMPA REDONDA,-19.794971,-63.559139,60
U.E. PASTORCITO DE FÁTIMA (DON BOSCO),-17.778906,-63.198653,15.62
U.E. PATUJU,-17.773043,-63.053256,34.82
U.E. PEDRO DOMINGO MURRILLO,-10.648914,-67.321893,92
U.E. PEDRO HERRERA,-11.03917,-66.13277,45.6
U.E. PEDRO RAMOS,-19.631533,-63.215431,58.12
U.E. POPECHI,-11.130742,-66.072475,53.57
U.E. PTO. COPACABANA,-11.54849,-66.68026,44.66
U.E. QUEBRADA SECA,-17.906697,-63.34096,33.33
U.E. QUIQUIBEY,-15.36358,-67.0975,87.21
U.E. RAMADA,-18.00214,-60.05825,43.59
U.E. REMANSO,-11.76813,-67.29217,69.23
U.E. REP. DEL PARAGUAY,-17.86308,-63.184911,44.12
U.E. RUFINO CHAO,-10.53096,-65.59814,38.78
U.E. SALINAS,-20.226,-63.46267,78.89
U.E. SAN ANTONIO,-17.750959,-62.988275,35
U.E. SAN ANTONIO,-12.04789,-68.58239,65.96
U.E. SAN BARTOLO DE LA FRONTERA,-16.299554,-59.896353,44.66
U.E. SAN BERNARDO,-15.65132,-65.2933,16.09
U.E. SAN CAYETANO,-17.731775,-63.086366,42.69
U.E. SAN DIEGO DE SAMARIA,-17.846505,-63.076237,57.69
U.E. SAN FELIX,-17.227525,-63.168256,62.5
U.E. SAN FRANCISCO,-12.17345,-67.31672,65.81
U.E. SAN FRANCISCO DE ASIS,-16.13365,-62.06047,82.43
U.E. SAN JAVIERITO,-16.164732,-61.001639,30.49
U.E. SAN JUAN BAUTISTA,-17.82422,-63.084,54.17
U.E. SAN JUAN DEL ESTE,-17.857377,-63.05619,53.25
U.E. SAN JULIAN DE BERLIN,-17.056704,-62.630868,77.78
U.E. SAN LORENCITO DE LA FRONTERA,-15.628549,-60.320012,34.62
U.E. SAN MIGUEL,-10.95564,-69.48006,100
U.E. SAN MIGUEL APONTE,-17.913584,-63.024907,41.6
U.E. SAN PEDRO,-17.72083,-63.431509,54
U.E. SAN RAFAEL,-17.450161,-63.925128,88.14
U.E. SAN RAFAELITO DE SUPONEMA,-16.51591,-60.73782,18.1
U.E. SAN RAMON DE LA VIBORA,-17.332635,-63.266569,72.67
U.E. SAN SALVADOR,-18.914073,-57.74367,92.31
U.E. SAN SILVESTRE,-17.352496,-63.260119,56.76
U.E. SANTA ANA,NA,NA,91.49
U.E. SANTA ANA C,-17.820523,-63.225873,43.1
U.E. SANTA ANITA DE LA FRONTERA,-16.164161,-60.468907,85.48
U.E. SANTA CRUZ DE LA SIERRA,-17.706459,-63.15969,13.81
U.E. SANTA ELENA,-11.78688,-67.48461,71.67
U.E. SANTA LOURDES,-11.132863,-68.462199,50.5
U.E. SANTA ROSA,-12.04853,-67.38081,53.7
U.E. SANTA ROSITA,-17.308308,-63.274899,25
U.E. SAPOCO,-16.611936,-60.99136,86.42
U.E. SATELITE NORTE,-17.608407,-63.145107,53.26
U.E. SEÑOR DE LOS MILAGROS,-17.739367,-63.111029,38.39
U.E. SIMON BOLÍVAR,-10.90335,-67.61858,72.99
U.E. SIXTO SUAREZ NAVARRO,-17.83391,-63.08702,61.11
U.E. TACUAREMBO,-17.930778,-63.398941,100
U.E. TARCILA JUSTINIANO,-15.92669,-61.327204,53.12
U.E. THEVENET DE VIANA,-17.871556000000002,-63.055362,53.61
U.E. TIERRA FIRME,-15.439323,-61.382974,94.07
U.E. TOMAS MORALES PADILLA,-17.897191,-63.220705,65.58
U.E. TRES ESTRELLAS,-11.33935,-69.27618,56.25
U.E. UCIA,-11.753432,-68.974577,91.94
U.E. VICTORIA,-17.8158,-63.10123,50.45
U.E. VICTORIA DIEZ,-17.873358,-63.192282,34.38
U.E. VILLA ALBA,-17.760563,-63.111486,36.36
U.E. VILLA AMERICA,-11.60563,-68.47382,50.56
U.E. VILLA BELLA,-11.44835,-68.72463,42.52
U.E. VILLA BELLA,-11.2168,-68.724,57.09
U.E. VILLA CRUZ,-11.022287,-68.764339,39.17
U.E. VILLA EL CARMEN DEL REMANZO,-15.25932,-65.00182,66.13
U.E. VILLA MODERNA,-17.848007,-63.088917,63
U.E. VISTA ALEGRE,-11.3245,-66.6041,50.51
U.E. WAJOJO,-17.541123,-63.186153,56.59
U.E. YAITY,-20.06437,-63.63815,80
U.E. YAPIROA,-19.605656,-62.575093,37.43
U.E. ZARAGOZA,-17.722167,-63.083584,43
UE 3 DE MAYO,-17.82614,-63.12704,53.37
UE DOMINGO FAUSTINO,-17.784235,-63.154699,14.46
UE MAXIMILIANO KOLBE,-17.3404,-63.266433,35.28
UE UNION Y PROGRESO,-17.827127,-63.205757,47.78
UN. ED.  NUCLEO CENTRAL,-16.91391,-63.998224,74.8
UN. ED. AYACUCHO,-17.86675,-63.219054,67.86
UN. ED. RAUL MENACHO,-16.600876,-64.067086,71.89
UNIDAD EDUCATIVA 21 DE AGOSTO,-13.04053,-64.6656,42.45
UNIDAD EDUCATIVA FIDEL SAUCEDO,-17.69003,-62.99212,42.6
UNIDAD EDUCATIVA LUCIO LENS,-14.44037,-67.52292,40.56
UNIDAD EDUCATIVA NATANIEL GARCÍA CHAVEZ,-11.00858,-66.07935,25.99
UNIDAD EDUCATIVA POMPEYA SANTISIMO REDENTOR,-17.735721,-63.136461,36.74
UNIDAD EDUCATIVA SAN JORGE NORTE,-17.74152,-63.18151,20.82
UNIDAD EDUCATIVA SAN JUAN,-17.71595,-63.15163,28.1
UNIVERSITARIO SUR,-17.84228,-63.20155,27.75
URKUPIÑA,-17.74188,-63.10837,45.28
URUBO OPEN MALL,-17.7493,-63.21519,7.77
VIRGEN DE GUADALUPE,-17.72815,-63.121766,37.63
